[
  {
    "id": "PS_TRY001",
    "name": "Police Station, Fort (Trichy City Central)",
    "district": "Tiruchirappalli",
    "city": "Tiruchirappalli",
    "state": "Tamil Nadu",
    "address": "Police Station, Fort (Trichy City Central), Tiruchirappalli, Tamil Nadu, 620002",
    "phone": "0431-2704601",
    "emergency_phone": "100",
    "type": "Police Station",
    "open_24x7": true,
    "lat": 10.8264,
    "lng": 78.6931,
    "pincode": "620002"
  },
  {
    "id": "PS_TRY002",
    "name": "Police Station, Palakkarai",
    "district": "Tiruchirappalli",
    "city": "Tiruchirappalli",
    "state": "Tamil Nadu",
    "address": "Police Station, Palakkarai, Tiruchirappalli, Tamil Nadu, 620001",
    "phone": "0431-2704602",
    "emergency_phone": "100",
    "type": "Police Station",
    "open_24x7": true,
    "lat": 10.8142,
    "lng": 78.6985,
    "pincode": "620001"
  },
  {
    "id": "PS_TRY003",
    "name": "Police Station, Gandhi Market",
    "district": "Tiruchirappalli",
    "city": "Tiruchirappalli",
    "state": "Tamil Nadu",
    "address": "Police Station, Gandhi Market, Tiruchirappalli, Tamil Nadu, 620008",
    "phone": "0431-2704603",
    "emergency_phone": "100",
    "type": "Police Station",
    "open_24x7": true,
    "lat": 10.8291,
    "lng": 78.7042,
    "pincode": "620008"
  },
  {
    "id": "PS_TRY004",
    "name": "Police Station, Cantonment",
    "district": "Tiruchirappalli",
    "city": "Tiruchirappalli",
    "state": "Tamil Nadu",
    "address": "Police Station, Cantonment, Tiruchirappalli, Tamil Nadu, 620001",
    "phone": "0431-2415604",
    "emergency_phone": "100",
    "type": "Police Station",
    "open_24x7": true,
    "lat": 10.8058,
    "lng": 78.6854,
    "pincode": "620001"
  },
  {
    "id": "PS_TRY005",
    "name": "Police Station, Thillai Nagar",
    "district": "Tiruchirappalli",
    "city": "Tiruchirappalli",
    "state": "Tamil Nadu",
    "address": "Police Station, Thillai Nagar, Tiruchirappalli, Tamil Nadu, 620018",
    "phone": "0431-2741605",
    "emergency_phone": "100",
    "type": "Police Station",
    "open_24x7": true,
    "lat": 10.8284,
    "lng": 78.6812,
    "pincode": "620018"
  },
  {
    "id": "PS_TRY006",
    "name": "Police Station, Sessions Court",
    "district": "Tiruchirappalli",
    "city": "Tiruchirappalli",
    "state": "Tamil Nadu",
    "address": "Police Station, Sessions Court, Tiruchirappalli, Tamil Nadu, 620001",
    "phone": "0431-2414606",
    "emergency_phone": "100",
    "type": "Police Station",
    "open_24x7": true,
    "lat": 10.8011,
    "lng": 78.6894,
    "pincode": "620001"
  },
  {
    "id": "PS_TRY007",
    "name": "Police Station, Golden Rock (Ponmalai)",
    "district": "Tiruchirappalli",
    "city": "Tiruchirappalli",
    "state": "Tamil Nadu",
    "address": "Police Station, Golden Rock (Ponmalai), Tiruchirappalli, Tamil Nadu, 620004",
    "phone": "0431-2460607",
    "emergency_phone": "100",
    "type": "Police Station",
    "open_24x7": true,
    "lat": 10.7912,
    "lng": 78.7185,
    "pincode": "620004"
  },
  {
    "id": "PS_TRY008",
    "name": "Police Station, Airport (TUT Limit)",
    "district": "Tiruchirappalli",
    "city": "Tiruchirappalli",
    "state": "Tamil Nadu",
    "address": "Police Station, Airport (TUT Limit), Tiruchirappalli, Tamil Nadu, 620007",
    "phone": "0431-2340608",
    "emergency_phone": "100",
    "type": "Police Station",
    "open_24x7": true,
    "lat": 10.7661,
    "lng": 78.7114,
    "pincode": "620007"
  },
  {
    "id": "PS_TRY009",
    "name": "Police Station, K. Sathanur",
    "district": "Tiruchirappalli",
    "city": "Tiruchirappalli",
    "state": "Tamil Nadu",
    "address": "Police Station, K. Sathanur, Tiruchirappalli, Tamil Nadu, 620021",
    "phone": "0431-2422609",
    "emergency_phone": "100",
    "type": "Police Station",
    "open_24x7": true,
    "lat": 10.7542,
    "lng": 78.6742,
    "pincode": "620021"
  },
  {
    "id": "PS_TRY010",
    "name": "Police Station, Srirangam",
    "district": "Tiruchirappalli",
    "city": "Tiruchirappalli",
    "state": "Tamil Nadu",
    "address": "Police Station, Srirangam, Tiruchirappalli, Tamil Nadu, 620006",
    "phone": "0431-2432610",
    "emergency_phone": "100",
    "type": "Police Station",
    "open_24x7": true,
    "lat": 10.8614,
    "lng": 78.6912,
    "pincode": "620006"
  },
  {
    "id": "PS_TRY011",
    "name": "Police Station, Thiruvanaikoil (Amma Mandapam Sector)",
    "district": "Tiruchirappalli",
    "city": "Tiruchirappalli",
    "state": "Tamil Nadu",
    "address": "Police Station, Thiruvanaikoil (Amma Mandapam Sector), Tiruchirappalli, Tamil Nadu, 620005",
    "phone": "0431-2435611",
    "emergency_phone": "100",
    "type": "Police Station",
    "open_24x7": true,
    "lat": 10.8542,
    "lng": 78.7064,
    "pincode": "620005"
  },
  {
    "id": "PS_TRY012",
    "name": "All Women Police Station, Srirangam Range",
    "district": "Tiruchirappalli",
    "city": "Tiruchirappalli",
    "state": "Tamil Nadu",
    "address": "All Women Police Station, Srirangam Range, Tiruchirappalli, Tamil Nadu, 620006",
    "phone": "0431-2432612",
    "emergency_phone": "100",
    "type": "Police Station",
    "open_24x7": true,
    "lat": 10.8592,
    "lng": 78.6889,
    "pincode": "620006"
  },
  {
    "id": "PS_TRY013",
    "name": "All Women Police Station, Cantonment Range",
    "district": "Tiruchirappalli",
    "city": "Tiruchirappalli",
    "state": "Tamil Nadu",
    "address": "All Women Police Station, Cantonment Range, Tiruchirappalli, Tamil Nadu, 620001",
    "phone": "0431-2415691",
    "emergency_phone": "100",
    "type": "Police Station",
    "open_24x7": true,
    "lat": 10.8042,
    "lng": 78.6831,
    "pincode": "620001"
  },
  {
    "id": "PS_TRY014",
    "name": "Police Station, Cyber Crime Wing (City)",
    "district": "Tiruchirappalli",
    "city": "Tiruchirappalli",
    "state": "Tamil Nadu",
    "address": "Police Station, Cyber Crime Wing (City), Tiruchirappalli, Tamil Nadu, 620001",
    "phone": "0431-2415699",
    "emergency_phone": "100",
    "type": "Police Station",
    "open_24x7": true,
    "lat": 10.8028,
    "lng": 78.6845,
    "pincode": "620001"
  },
  {
    "id": "PS_TRY015",
    "name": "Police Station, Thiruverumbur",
    "district": "Tiruchirappalli",
    "city": "Thiruverumbur",
    "state": "Tamil Nadu",
    "address": "Police Station, Thiruverumbur, Thiruverumbur, Tiruchirappalli, Tamil Nadu, 620013",
    "phone": "0431-2552115",
    "emergency_phone": "100",
    "type": "Police Station",
    "open_24x7": true,
    "lat": 10.7942,
    "lng": 78.7661,
    "pincode": "620013"
  },
  {
    "id": "PS_TRY016",
    "name": "Police Station, Thuvakudi (SIPCOT)",
    "district": "Tiruchirappalli",
    "city": "Thuvakudi",
    "state": "Tamil Nadu",
    "address": "Police Station, Thuvakudi (SIPCOT), Thuvakudi, Tiruchirappalli, Tamil Nadu, 620015",
    "phone": "0431-2500116",
    "emergency_phone": "100",
    "type": "Police Station",
    "open_24x7": true,
    "lat": 10.7558,
    "lng": 78.8114,
    "pincode": "620015"
  },
  {
    "id": "PS_TRY017",
    "name": "Police Station, BHEL Township",
    "district": "Tiruchirappalli",
    "city": "Tiruchirappalli",
    "state": "Tamil Nadu",
    "address": "Police Station, BHEL Township, Tiruchirappalli, Tamil Nadu, 620014",
    "phone": "0431-2520117",
    "emergency_phone": "100",
    "type": "Police Station",
    "open_24x7": true,
    "lat": 10.7812,
    "lng": 78.7942,
    "pincode": "620014"
  },
  {
    "id": "PS_TRY018",
    "name": "Police Station, Navalpattu Rural Hub",
    "district": "Tiruchirappalli",
    "city": "Thiruverumbur Rural",
    "state": "Tamil Nadu",
    "address": "Police Station, Navalpattu Rural Hub, Thiruverumbur Rural, Tiruchirappalli, Tamil Nadu, 620026",
    "phone": "0431-2556118",
    "emergency_phone": "100",
    "type": "Police Station",
    "open_24x7": true,
    "lat": 10.7411,
    "lng": 78.7458,
    "pincode": "620026"
  },
  {
    "id": "PS_TRY019",
    "name": "Police Station, Manapparai",
    "district": "Tiruchirappalli",
    "city": "Manapparai",
    "state": "Tamil Nadu",
    "address": "Police Station, Manapparai, Manapparai, Tiruchirappalli, Tamil Nadu, 621306",
    "phone": "04332-260119",
    "emergency_phone": "100",
    "type": "Police Station",
    "open_24x7": true,
    "lat": 10.6094,
    "lng": 78.4114,
    "pincode": "621306"
  },
  {
    "id": "PS_TRY020",
    "name": "Police Station, Marungapuri",
    "district": "Tiruchirappalli",
    "city": "Marungapuri",
    "state": "Tamil Nadu",
    "address": "Police Station, Marungapuri, Marungapuri, Tiruchirappalli, Tamil Nadu, 621308",
    "phone": "04332-254120",
    "emergency_phone": "100",
    "type": "Police Station",
    "open_24x7": true,
    "lat": 10.4285,
    "lng": 78.4322,
    "pincode": "621308"
  },
  {
    "id": "PS_TRY021",
    "name": "Police Station, Puthanatham",
    "district": "Tiruchirappalli",
    "city": "Puthanatham",
    "state": "Tamil Nadu",
    "address": "Police Station, Puthanatham, Puthanatham, Tiruchirappalli, Tamil Nadu, 621310",
    "phone": "04332-272121",
    "emergency_phone": "100",
    "type": "Police Station",
    "open_24x7": true,
    "lat": 10.5114,
    "lng": 78.3411,
    "pincode": "621310"
  },
  {
    "id": "PS_TRY022",
    "name": "Police Station, Thuvarankurichi",
    "district": "Tiruchirappalli",
    "city": "Thuvarankurichi",
    "state": "Tamil Nadu",
    "address": "Police Station, Thuvarankurichi, Thuvarankurichi, Tiruchirappalli, Tamil Nadu, 621314",
    "phone": "04332-242122",
    "emergency_phone": "100",
    "type": "Police Station",
    "open_24x7": true,
    "lat": 10.3912,
    "lng": 78.3842,
    "pincode": "621314"
  },
  {
    "id": "PS_TRY023",
    "name": "Police Station, Valanadu Rural Sector",
    "district": "Tiruchirappalli",
    "city": "Marungapuri Sector",
    "state": "Tamil Nadu",
    "address": "Police Station, Valanadu Rural Sector, Marungapuri Sector, Tiruchirappalli, Tamil Nadu, 621308",
    "phone": "04332-254145",
    "emergency_phone": "100",
    "type": "Police Station",
    "open_24x7": true,
    "lat": 10.4412,
    "lng": 78.5192,
    "pincode": "621308"
  },
  {
    "id": "PS_TRY024",
    "name": "Police Station, Musiri",
    "district": "Tiruchirappalli",
    "city": "Musiri",
    "state": "Tamil Nadu",
    "address": "Police Station, Musiri, Musiri, Tiruchirappalli, Tamil Nadu, 621211",
    "phone": "04326-262124",
    "emergency_phone": "100",
    "type": "Police Station",
    "open_24x7": true,
    "lat": 10.9575,
    "lng": 78.4558,
    "pincode": "621211"
  },
  {
    "id": "PS_TRY025",
    "name": "Police Station, Thathaiyangarpet",
    "district": "Tiruchirappalli",
    "city": "Thathaiyangarpet",
    "state": "Tamil Nadu",
    "address": "Police Station, Thathaiyangarpet, Thathaiyangarpet, Tiruchirappalli, Tamil Nadu, 621214",
    "phone": "04326-238125",
    "emergency_phone": "100",
    "type": "Police Station",
    "open_24x7": true,
    "lat": 11.1185,
    "lng": 78.4114,
    "pincode": "621214"
  },
  {
    "id": "PS_TRY026",
    "name": "Police Station, Jammunathapuram",
    "district": "Tiruchirappalli",
    "city": "Musiri Rural",
    "state": "Tamil Nadu",
    "address": "Police Station, Jammunathapuram, Musiri Rural, Tiruchirappalli, Tamil Nadu, 621211",
    "phone": "04326-254126",
    "emergency_phone": "100",
    "type": "Police Station",
    "open_24x7": true,
    "lat": 11.1411,
    "lng": 78.3411,
    "pincode": "621211"
  },
  {
    "id": "PS_TRY027",
    "name": "Police Station, Pulivalam",
    "district": "Tiruchirappalli",
    "city": "Pulivalam",
    "state": "Tamil Nadu",
    "address": "Police Station, Pulivalam, Pulivalam, Tiruchirappalli, Tamil Nadu, 621006",
    "phone": "04326-244127",
    "emergency_phone": "100",
    "type": "Police Station",
    "open_24x7": true,
    "lat": 11.0812,
    "lng": 78.5694,
    "pincode": "621006"
  },
  {
    "id": "PS_TRY028",
    "name": "Police Station, Thottiyam",
    "district": "Tiruchirappalli",
    "city": "Thottiyam",
    "state": "Tamil Nadu",
    "address": "Police Station, Thottiyam, Thottiyam, Tiruchirappalli, Tamil Nadu, 621215",
    "phone": "04326-252128",
    "emergency_phone": "100",
    "type": "Police Station",
    "open_24x7": true,
    "lat": 10.9951,
    "lng": 78.3245,
    "pincode": "621215"
  },
  {
    "id": "PS_TRY029",
    "name": "Police Station, Kattuputhur",
    "district": "Tiruchirappalli",
    "city": "Kattuputhur",
    "state": "Tamil Nadu",
    "address": "Police Station, Kattuputhur, Kattuputhur, Tiruchirappalli, Tamil Nadu, 621207",
    "phone": "04326-242129",
    "emergency_phone": "100",
    "type": "Police Station",
    "open_24x7": true,
    "lat": 11.0211,
    "lng": 78.2452,
    "pincode": "621207"
  },
  {
    "id": "PS_TRY030",
    "name": "Police Station, Lalgudi",
    "district": "Tiruchirappalli",
    "city": "Lalgudi",
    "state": "Tamil Nadu",
    "address": "Police Station, Lalgudi, Lalgudi, Tiruchirappalli, Tamil Nadu, 621601",
    "phone": "0431-2541130",
    "emergency_phone": "100",
    "type": "Police Station",
    "open_24x7": true,
    "lat": 10.8683,
    "lng": 78.8192,
    "pincode": "621601"
  },
  {
    "id": "PS_TRY031",
    "name": "Police Station, Pullambadi",
    "district": "Tiruchirappalli",
    "city": "Pullambadi",
    "state": "Tamil Nadu",
    "address": "Police Station, Pullambadi, Pullambadi, Tiruchirappalli, Tamil Nadu, 621611",
    "phone": "0431-2543131",
    "emergency_phone": "100",
    "type": "Police Station",
    "open_24x7": true,
    "lat": 10.9125,
    "lng": 78.9114,
    "pincode": "621611"
  },
  {
    "id": "PS_TRY032",
    "name": "Police Station, Samayapuram",
    "district": "Tiruchirappalli",
    "city": "Samayapuram",
    "state": "Tamil Nadu",
    "address": "Police Station, Samayapuram, Samayapuram, Tiruchirappalli, Tamil Nadu, 621112",
    "phone": "0431-2670132",
    "emergency_phone": "100",
    "type": "Police Station",
    "open_24x7": true,
    "lat": 10.9312,
    "lng": 78.7342,
    "pincode": "621112"
  },
  {
    "id": "PS_TRY033",
    "name": "Police Station, Kollidam Border Sector",
    "district": "Tiruchirappalli",
    "city": "Lalgudi Sub-Sector",
    "state": "Tamil Nadu",
    "address": "Police Station, Kollidam Border Sector, Lalgudi Sub-Sector, Tiruchirappalli, Tamil Nadu, 621601",
    "phone": "0431-2541133",
    "emergency_phone": "100",
    "type": "Police Station",
    "open_24x7": true,
    "lat": 10.8872,
    "lng": 78.7661,
    "pincode": "621601"
  },
  {
    "id": "PS_TRY034",
    "name": "Police Station, Siruganur",
    "district": "Tiruchirappalli",
    "city": "Siruganur",
    "state": "Tamil Nadu",
    "address": "Police Station, Siruganur, Siruganur, Tiruchirappalli, Tamil Nadu, 621105",
    "phone": "0431-2651134",
    "emergency_phone": "100",
    "type": "Police Station",
    "open_24x7": true,
    "lat": 11.0051,
    "lng": 78.7842,
    "pincode": "621105"
  },
  {
    "id": "PS_TRY035",
    "name": "Police Station, Thuraiyur Town",
    "district": "Tiruchirappalli",
    "city": "Thuraiyur",
    "state": "Tamil Nadu",
    "address": "Police Station, Thuraiyur Town, Thuraiyur, Tiruchirappalli, Tamil Nadu, 621010",
    "phone": "04327-222135",
    "emergency_phone": "100",
    "type": "Police Station",
    "open_24x7": true,
    "lat": 11.1458,
    "lng": 78.5954,
    "pincode": "621010"
  },
  {
    "id": "PS_TRY036",
    "name": "Police Station, Thuraiyur Rural (Uppiliapuram)",
    "district": "Tiruchirappalli",
    "city": "Uppiliapuram",
    "state": "Tamil Nadu",
    "address": "Police Station, Thuraiyur Rural (Uppiliapuram), Uppiliapuram, Tiruchirappalli, Tamil Nadu, 621011",
    "phone": "04327-254136",
    "emergency_phone": "100",
    "type": "Police Station",
    "open_24x7": true,
    "lat": 11.2152,
    "lng": 78.5114,
    "pincode": "621011"
  },
  {
    "id": "PS_TRY037",
    "name": "Police Station, Eragudi Rural Sector",
    "district": "Tiruchirappalli",
    "city": "Thuraiyur Sector",
    "state": "Tamil Nadu",
    "address": "Police Station, Eragudi Rural Sector, Thuraiyur Sector, Tiruchirappalli, Tamil Nadu, 621010",
    "phone": "04327-222140",
    "emergency_phone": "100",
    "type": "Police Station",
    "open_24x7": true,
    "lat": 11.1691,
    "lng": 78.6121,
    "pincode": "621010"
  },
  {
    "id": "PS_TRY038",
    "name": "Police Station, Jeeyapuram",
    "district": "Tiruchirappalli",
    "city": "Jeeyapuram",
    "state": "Tamil Nadu",
    "address": "Police Station, Jeeyapuram, Jeeyapuram, Tiruchirappalli, Tamil Nadu, 621201",
    "phone": "0431-2618138",
    "emergency_phone": "100",
    "type": "Police Station",
    "open_24x7": true,
    "lat": 10.8422,
    "lng": 78.5839,
    "pincode": "621201"
  },
  {
    "id": "PS_TRY039",
    "name": "Police Station, Somarasampettai",
    "district": "Tiruchirappalli",
    "city": "Jeeyapuram Rural",
    "state": "Tamil Nadu",
    "address": "Police Station, Somarasampettai, Jeeyapuram Rural, Tiruchirappalli, Tamil Nadu, 620102",
    "phone": "0431-2487139",
    "emergency_phone": "100",
    "type": "Police Station",
    "open_24x7": true,
    "lat": 10.8114,
    "lng": 78.6214,
    "pincode": "620102"
  },
  {
    "id": "PS_TRY040",
    "name": "Police Station, Ramji Nagar",
    "district": "Tiruchirappalli",
    "city": "Tiruchirappalli Rural",
    "state": "Tamil Nadu",
    "address": "Police Station, Ramji Nagar, Tiruchirappalli Rural, Tiruchirappalli, Tamil Nadu, 620009",
    "phone": "0431-2481140",
    "emergency_phone": "100",
    "type": "Police Station",
    "open_24x7": true,
    "lat": 10.7839,
    "lng": 78.6054,
    "pincode": "620009"
  },
  {
    "id": "PS_TRY041",
    "name": "Police Station, Vathalai Border Hub",
    "district": "Tiruchirappalli",
    "city": "Jeeyapuram Sector",
    "state": "Tamil Nadu",
    "address": "Police Station, Vathalai Border Hub, Jeeyapuram Sector, Tiruchirappalli, Tamil Nadu, 621201",
    "phone": "0431-2618141",
    "emergency_phone": "100",
    "type": "Police Station",
    "open_24x7": true,
    "lat": 10.8912,
    "lng": 78.5512,
    "pincode": "621201"
  }
]
