[
  {
    "id": "PS_TVR001",
    "name": "Police Station, Tiruvarur Town",
    "district": "Tiruvarur",
    "city": "Tiruvarur",
    "state": "Tamil Nadu",
    "address": "Police Station, Tiruvarur Town, Tiruvarur, Tamil Nadu, 610001",
    "phone": "04366-222101",
    "emergency_phone": "100",
    "type": "Police Station",
    "open_24x7": true,
    "lat": 10.7714,
    "lng": 79.6411,
    "pincode": "610001"
  },
  {
    "id": "PS_TVR002",
    "name": "Police Station, Tiruvarur Taluk",
    "district": "Tiruvarur",
    "city": "Tiruvarur",
    "state": "Tamil Nadu",
    "address": "Police Station, Tiruvarur Taluk, Tiruvarur, Tamil Nadu, 610001",
    "phone": "04366-222202",
    "emergency_phone": "100",
    "type": "Police Station",
    "open_24x7": true,
    "lat": 10.7654,
    "lng": 79.6384,
    "pincode": "610001"
  },
  {
    "id": "PS_TVR003",
    "name": "All Women Police Station, Tiruvarur",
    "district": "Tiruvarur",
    "city": "Tiruvarur",
    "state": "Tamil Nadu",
    "address": "All Women Police Station, Tiruvarur, Tiruvarur, Tamil Nadu, 610001",
    "phone": "04366-222191",
    "emergency_phone": "100",
    "type": "Police Station",
    "open_24x7": true,
    "lat": 10.7691,
    "lng": 79.6395,
    "pincode": "610001"
  },
  {
    "id": "PS_TVR004",
    "name": "Police Station, Mannargudi Town",
    "district": "Tiruvarur",
    "city": "Mannargudi",
    "state": "Tamil Nadu",
    "address": "Police Station, Mannargudi Town, Mannargudi, Tiruvarur, Tamil Nadu, 614001",
    "phone": "04367-222104",
    "emergency_phone": "100",
    "type": "Police Station",
    "open_24x7": true,
    "lat": 10.6654,
    "lng": 79.4425,
    "pincode": "614001"
  },
  {
    "id": "PS_TVR005",
    "name": "Police Station, Mannargudi Taluk",
    "district": "Tiruvarur",
    "city": "Mannargudi",
    "state": "Tamil Nadu",
    "address": "Police Station, Mannargudi Taluk, Mannargudi, Tiruvarur, Tamil Nadu, 614001",
    "phone": "04367-222205",
    "emergency_phone": "100",
    "type": "Police Station",
    "open_24x7": true,
    "lat": 10.6594,
    "lng": 79.4384,
    "pincode": "614001"
  },
  {
    "id": "PS_TVR006",
    "name": "All Women Police Station, Mannargudi",
    "district": "Tiruvarur",
    "city": "Mannargudi",
    "state": "Tamil Nadu",
    "address": "All Women Police Station, Mannargudi, Mannargudi, Tiruvarur, Tamil Nadu, 614001",
    "phone": "04367-222192",
    "emergency_phone": "100",
    "type": "Police Station",
    "open_24x7": true,
    "lat": 10.6612,
    "lng": 79.4411,
    "pincode": "614001"
  },
  {
    "id": "PS_TVR007",
    "name": "Police Station, Nannilam",
    "district": "Tiruvarur",
    "city": "Nannilam",
    "state": "Tamil Nadu",
    "address": "Police Station, Nannilam, Nannilam, Tiruvarur, Tamil Nadu, 610105",
    "phone": "04366-230107",
    "emergency_phone": "100",
    "type": "Police Station",
    "open_24x7": true,
    "lat": 10.8872,
    "lng": 79.6158,
    "pincode": "610105"
  },
  {
    "id": "PS_TVR008",
    "name": "Police Station, Kudavasal",
    "district": "Tiruvarur",
    "city": "Kudavasal",
    "state": "Tamil Nadu",
    "address": "Police Station, Kudavasal, Kudavasal, Tiruvarur, Tamil Nadu, 612601",
    "phone": "04366-260108",
    "emergency_phone": "100",
    "type": "Police Station",
    "open_24x7": true,
    "lat": 10.8683,
    "lng": 79.4895,
    "pincode": "612601"
  },
  {
    "id": "PS_TVR009",
    "name": "Police Station, Peralam",
    "district": "Tiruvarur",
    "city": "Peralam",
    "state": "Tamil Nadu",
    "address": "Police Station, Peralam, Peralam, Tiruvarur, Tamil Nadu, 609405",
    "phone": "04366-234109",
    "emergency_phone": "100",
    "type": "Police Station",
    "open_24x7": true,
    "lat": 10.9542,
    "lng": 79.6594,
    "pincode": "609405"
  },
  {
    "id": "PS_TVR010",
    "name": "Police Station, Thiruthuraipoondi",
    "district": "Tiruvarur",
    "city": "Thiruthuraipoondi",
    "state": "Tamil Nadu",
    "address": "Police Station, Thiruthuraipoondi, Thiruthuraipoondi, Tiruvarur, Tamil Nadu, 614713",
    "phone": "04369-220110",
    "emergency_phone": "100",
    "type": "Police Station",
    "open_24x7": true,
    "lat": 10.5345,
    "lng": 79.6411,
    "pincode": "614713"
  },
  {
    "id": "PS_TVR011",
    "name": "Police Station, Needamangalam",
    "district": "Tiruvarur",
    "city": "Needamangalam",
    "state": "Tamil Nadu",
    "address": "Police Station, Needamangalam, Needamangalam, Tiruvarur, Tamil Nadu, 614404",
    "phone": "04367-260111",
    "emergency_phone": "100",
    "type": "Police Station",
    "open_24x7": true,
    "lat": 10.7812,
    "lng": 79.4114,
    "pincode": "614404"
  },
  {
    "id": "PS_TVR012",
    "name": "Police Station, Valangaiman",
    "district": "Tiruvarur",
    "city": "Valangaiman",
    "state": "Tamil Nadu",
    "address": "Police Station, Valangaiman, Valangaiman, Tiruvarur, Tamil Nadu, 612804",
    "phone": "04374-264112",
    "emergency_phone": "100",
    "type": "Police Station",
    "open_24x7": true,
    "lat": 10.8912,
    "lng": 79.3842,
    "pincode": "612804"
  },
  {
    "id": "PS_TVR013",
    "name": "Police Station, Koradacheri",
    "district": "Tiruvarur",
    "city": "Koradacheri",
    "state": "Tamil Nadu",
    "address": "Police Station, Koradacheri, Koradacheri, Tiruvarur, Tamil Nadu, 613703",
    "phone": "04366-242113",
    "emergency_phone": "100",
    "type": "Police Station",
    "open_24x7": true,
    "lat": 10.7854,
    "lng": 79.5211,
    "pincode": "613703"
  },
  {
    "id": "PS_TVR014",
    "name": "Police Station, Muthupet",
    "district": "Tiruvarur",
    "city": "Muthupet",
    "state": "Tamil Nadu",
    "address": "Police Station, Muthupet, Muthupet, Tiruvarur, Tamil Nadu, 614704",
    "phone": "04369-262114",
    "emergency_phone": "100",
    "type": "Police Station",
    "open_24x7": true,
    "lat": 10.3954,
    "lng": 79.4851,
    "pincode": "614704"
  },
  {
    "id": "PS_TVR015",
    "name": "Police Station, Edaiyur Rural Sector",
    "district": "Tiruvarur",
    "city": "Thiruthuraipoondi Rural",
    "state": "Tamil Nadu",
    "address": "Police Station, Edaiyur Rural Sector, Thiruthuraipoondi Rural, Tiruvarur, Tamil Nadu, 614713",
    "phone": "04369-220140",
    "emergency_phone": "100",
    "type": "Police Station",
    "open_24x7": true,
    "lat": 10.5114,
    "lng": 79.5839,
    "pincode": "614713"
  },
  {
    "id": "PS_TVR016",
    "name": "Police Station, Alathambadi",
    "district": "Tiruvarur",
    "city": "Alathambadi",
    "state": "Tamil Nadu",
    "address": "Police Station, Alathambadi, Alathambadi, Tiruvarur, Tamil Nadu, 610211",
    "phone": "04369-245116",
    "emergency_phone": "100",
    "type": "Police Station",
    "open_24x7": true,
    "lat": 10.6121,
    "lng": 79.6158,
    "pincode": "610211"
  },
  {
    "id": "PS_TVR017",
    "name": "Police Station, Vadapathimangalam",
    "district": "Tiruvarur",
    "city": "Vadapathimangalam",
    "state": "Tamil Nadu",
    "address": "Police Station, Vadapathimangalam, Vadapathimangalam, Tiruvarur, Tamil Nadu, 610206",
    "phone": "04366-248117",
    "emergency_phone": "100",
    "type": "Police Station",
    "open_24x7": true,
    "lat": 10.7114,
    "lng": 79.5542,
    "pincode": "610206"
  },
  {
    "id": "PS_TVR018",
    "name": "Police Station, Kottur (TVR Limit)",
    "district": "Tiruvarur",
    "city": "Mannargudi Rural",
    "state": "Tamil Nadu",
    "address": "Police Station, Kottur (TVR Limit), Mannargudi Rural, Tiruvarur, Tamil Nadu, 614708",
    "phone": "04367-234118",
    "emergency_phone": "100",
    "type": "Police Station",
    "open_24x7": true,
    "lat": 10.5412,
    "lng": 79.5192,
    "pincode": "614708"
  },
  {
    "id": "PS_TVR019",
    "name": "Police Station, Paravakkottai Sub-Sector",
    "district": "Tiruvarur",
    "city": "Mannargudi Sector",
    "state": "Tamil Nadu",
    "address": "Police Station, Paravakkottai Sub-Sector, Mannargudi Sector, Tiruvarur, Tamil Nadu, 614015",
    "phone": "04367-222145",
    "emergency_phone": "100",
    "type": "Police Station",
    "open_24x7": true,
    "lat": 10.6158,
    "lng": 79.3912,
    "pincode": "614015"
  },
  {
    "id": "PS_TVR020",
    "name": "Prohibition Enforcement Wing (PEW), Tiruvarur",
    "district": "Tiruvarur",
    "city": "Tiruvarur",
    "state": "Tamil Nadu",
    "address": "Prohibition Enforcement Wing (PEW), Tiruvarur, Tiruvarur, Tamil Nadu, 610001",
    "phone": "04366-222551",
    "emergency_phone": "100",
    "type": "Police Station",
    "open_24x7": true,
    "lat": 10.7725,
    "lng": 79.6425,
    "pincode": "610001"
  },
  {
    "id": "PS_TVR021",
    "name": "District Crime Branch (DCB), Tiruvarur Rural",
    "district": "Tiruvarur",
    "city": "Tiruvarur",
    "state": "Tamil Nadu",
    "address": "District Crime Branch (DCB), Tiruvarur Rural, Tiruvarur, Tamil Nadu, 610001",
    "phone": "04366-222276",
    "emergency_phone": "100",
    "type": "Police Station",
    "open_24x7": true,
    "lat": 10.7634,
    "lng": 79.6351,
    "pincode": "610001"
  },
  {
    "id": "PS_TVR022",
    "name": "Police Station, Cyber Crime Wing",
    "district": "Tiruvarur",
    "city": "Tiruvarur",
    "state": "Tamil Nadu",
    "address": "Police Station, Cyber Crime Wing, Tiruvarur, Tamil Nadu, 610001",
    "phone": "04366-222999",
    "emergency_phone": "100",
    "type": "Police Station",
    "open_24x7": true,
    "lat": 10.7642,
    "lng": 79.6362,
    "pincode": "610001"
  }
]
