[
  {
    "id": "TW001",
    "name": "Sree Shan Motors",
    "district": "Chennai",
    "state": "Tamil Nadu",
    "address": "No.34, 1st Main Road, Vgp Amutha Nagar, Nerkundram, Chennai-600095",
    "phone": "+91 8047812127",
    "type": "Car Towing",
    "open_24x7": false,
    "lat": 13.1143,
    "lng": 80.2207,
    "rating": 3.0
  },
  {
    "id": "TW002",
    "name": "Pallavan Car Carriers And Recovery Services",
    "district": "Chennai",
    "state": "Tamil Nadu",
    "address": "2/1324, Karpaga Vinayagar Nagar, 6th Street, Oggiyamduraipakkam, Chennai-600097",
    "phone": null,
    "type": "Car Towing",
    "open_24x7": false,
    "lat": 13.0827,
    "lng": 80.2707,
    "rating": null
  },
  {
    "id": "TW003",
    "name": "SRM Crane Services",
    "district": "Chennai",
    "state": "Tamil Nadu",
    "address": "NO 467/6, Chennai-600056",
    "phone": null,
    "type": "Heavy Vehicle Towing",
    "open_24x7": false,
    "lat": 13.0732,
    "lng": 80.2208,
    "rating": 3.7
  },
  {
    "id": "TW004",
    "name": "Ind Packers And Movers",
    "district": "Chennai",
    "state": "Tamil Nadu",
    "address": "7 Big Street, Chennai Chengalpattu, Chennai-600117",
    "phone": null,
    "type": "Car Towing",
    "open_24x7": false,
    "lat": 12.9716,
    "lng": 80.2388,
    "rating": null
  },
  {
    "id": "TW005",
    "name": "V.S.T. Auto Parts Pvt. Ltd.",
    "district": "Chennai",
    "state": "Tamil Nadu",
    "address": "Poonamalle Bye-pass Road, Chennai-600056",
    "phone": null,
    "type": "Car Towing",
    "open_24x7": false,
    "lat": 13.0878,
    "lng": 80.1928,
    "rating": null
  },
  {
    "id": "TW006",
    "name": "Car Towing Service & Bike Towing Service",
    "district": "Chennai",
    "state": "Tamil Nadu",
    "address": "Chennai-600097",
    "phone": null,
    "type": "Car/Bike Towing",
    "open_24x7": true,
    "lat": 13.0827,
    "lng": 80.2707,
    "rating": null
  },
  {
    "id": "TW007",
    "name": "Holiday Cars",
    "district": "Chennai",
    "state": "Tamil Nadu",
    "address": "No 16, 6th Street Anna Main Road Thiruvalluvar Nagar, Thirumullaivoyal, Near Police Station, Chennai-600062",
    "phone": null,
    "type": "Car Towing",
    "open_24x7": false,
    "lat": 13.1143,
    "lng": 80.1643,
    "rating": null
  },
  {
    "id": "TW008",
    "name": "Krishna Car Care",
    "district": "Chennai",
    "state": "Tamil Nadu",
    "address": "29, Anna Salai, Karunanithi Nagar, Nanganallur, Chennai-600061",
    "phone": null,
    "type": "Car Towing",
    "open_24x7": false,
    "lat": 13.0067,
    "lng": 80.2208,
    "rating": 4.0
  },
  {
    "id": "TW009",
    "name": "ZH Trans",
    "district": "Chennai",
    "state": "Tamil Nadu",
    "address": "No. 15/56 Alandur Road, Saidapet, Chennai-600015",
    "phone": null,
    "type": "Car Towing",
    "open_24x7": false,
    "lat": 13.0378,
    "lng": 80.2278,
    "rating": null
  },
  {
    "id": "TW010",
    "name": "Murugan & Co.",
    "district": "Chennai",
    "state": "Tamil Nadu",
    "address": "Ground Floor, 21, LGN Road, Chennai-600002",
    "phone": null,
    "type": "Car Towing",
    "open_24x7": false,
    "lat": 13.0827,
    "lng": 80.2707,
    "rating": null
  },
  {
    "id": "TW011",
    "name": "GoMechanic - Car Repairs & Towing Service, Purasaiwakkam",
    "district": "Chennai",
    "state": "Tamil Nadu",
    "address": "Purasaiwakkam, Chennai",
    "phone": "+91 8047859970",
    "type": "Car/Bike Towing",
    "open_24x7": true,
    "lat": 13.0732,
    "lng": 80.2508,
    "rating": 5.0
  },
  {
    "id": "TW014",
    "name": "GoMechanic - Car Helpline Service, Ramapuram",
    "district": "Chennai",
    "state": "Tamil Nadu",
    "address": "Ramapuram, Chennai",
    "phone": "+91 8047859970",
    "type": "Car Towing",
    "open_24x7": true,
    "lat": 13.0067,
    "lng": 80.2308,
    "rating": 0.0
  },
  {
    "id": "TW015",
    "name": "GoMechanic - Car Towing Service, Chennai",
    "district": "Chennai",
    "state": "Tamil Nadu",
    "address": "Chennai",
    "phone": "+91 8047859970",
    "type": "Car Towing",
    "open_24x7": true,
    "lat": 13.0827,
    "lng": 80.2707,
    "rating": 5.0
  },
  {
    "id": "TW016",
    "name": "GoMechanic - Chennai Car Towing Service",
    "district": "Chennai",
    "state": "Tamil Nadu",
    "address": "Chennai",
    "phone": "+91 8047859970",
    "type": "Car Towing",
    "open_24x7": true,
    "lat": 13.0827,
    "lng": 80.2707,
    "rating": 1.0
  },
  {
    "id": "TW019",
    "name": "Elite Roadside Assistance",
    "district": "Chennai",
    "state": "Tamil Nadu",
    "address": "Chennai",
    "phone": "+91 9940000095",
    "type": "Car/Bike Towing",
    "open_24x7": true,
    "lat": 13.0827,
    "lng": 80.2707,
    "rating": 4.7
  },
  {
    "id": "TW026",
    "name": "CPM Towing Services",
    "district": "Chennai",
    "state": "Tamil Nadu",
    "address": "4, 293, Ottiambakkam Main Rd, Sithalapakkam, Chennai-600126",
    "phone": "+91 9578 123 111",
    "type": "Car/Bike Towing",
    "open_24x7": true,
    "lat": 12.9165,
    "lng": 80.1679,
    "rating": null
  },
  {
    "id": "TW027",
    "name": "GadiXpert",
    "district": "Chennai",
    "state": "Tamil Nadu",
    "address": "T. Nagar, Anna Nagar, Adyar, Chennai",
    "phone": "+91 93357 50437",
    "type": "Car/Bike Towing",
    "open_24x7": true,
    "lat": 13.0827,
    "lng": 80.2707,
    "rating": null
  },
  {
    "id": "TW028",
    "name": "Sri Lakshmi Venkateswara Towing Services",
    "district": "Chennai",
    "state": "Tamil Nadu",
    "address": "Chennai",
    "phone": "+91 7382742302",
    "type": "Car Towing",
    "open_24x7": true,
    "lat": 13.0827,
    "lng": 80.2707,
    "rating": null
  },
  {
    "id": "TW043",
    "name": "Indian Auto Force (GoMechanic)",
    "district": "Chennai",
    "state": "Tamil Nadu",
    "address": "Tamil Nadu puzhal, Chennai",
    "phone": "+91 8047859970",
    "type": "Car/Bike Towing",
    "open_24x7": true,
    "lat": 13.1143,
    "lng": 80.2207,
    "rating": 4.4
  },
  {
    "id": "TW044",
    "name": "Auto Zoom",
    "district": "Chennai",
    "state": "Tamil Nadu",
    "address": "Chennai",
    "phone": null,
    "type": "Car Towing",
    "open_24x7": false,
    "lat": 13.0827,
    "lng": 80.2707,
    "rating": null
  },
  {
    "id": "TW045",
    "name": "Da Vinci Multibrand Car Service Center",
    "district": "Chennai",
    "state": "Tamil Nadu",
    "address": "Navalur, Chennai",
    "phone": null,
    "type": "Car Towing",
    "open_24x7": false,
    "lat": 12.9165,
    "lng": 80.2308,
    "rating": null
  },
  {
    "id": "TW046",
    "name": "J S Transports & Recovery Servies",
    "district": "Chennai",
    "state": "Tamil Nadu",
    "address": "Chennai",
    "phone": null,
    "type": "Car Towing",
    "open_24x7": false,
    "lat": 13.0827,
    "lng": 80.2707,
    "rating": null
  },
  {
    "id": "TW047",
    "name": "Sri Guruvayurappan Recovery Van And Towing Service",
    "district": "Chennai",
    "state": "Tamil Nadu",
    "address": "Royapettah, Chennai",
    "phone": null,
    "type": "Car Towing",
    "open_24x7": false,
    "lat": 13.0569,
    "lng": 80.2595,
    "rating": null
  },
  {
    "id": "TW048",
    "name": "S O Recovery Services",
    "district": "Chennai",
    "state": "Tamil Nadu",
    "address": "No: 106/3, 2nd Floor, Adithanar Salai, Near Naveen Tower, Pudupet, Egmore, Chennai-600002",
    "phone": null,
    "type": "Car Towing",
    "open_24x7": false,
    "lat": 13.0732,
    "lng": 80.2508,
    "rating": null
  },
  {
    "id": "TW049",
    "name": "Classic Car Care",
    "district": "Chennai",
    "state": "Tamil Nadu",
    "address": "Chennai",
    "phone": null,
    "type": "Car Towing",
    "open_24x7": false,
    "lat": 13.0827,
    "lng": 80.2707,
    "rating": null
  },
  {
    "id": "TW050",
    "name": "Shankar Automobiles",
    "district": "Chennai",
    "state": "Tamil Nadu",
    "address": "Chennai",
    "phone": null,
    "type": "Car Towing",
    "open_24x7": false,
    "lat": 13.0827,
    "lng": 80.2707,
    "rating": null
  }
]
