[
  {
    "id": "PS_CHN001",
    "name": "C1 Flower Bazaar Police Station",
    "district": "Chennai",
    "city": "Chennai",
    "state": "Tamil Nadu",
    "address": "C1 Flower Bazaar Police Station, Chennai, Tamil Nadu, 600001",
    "phone": "044-23452464",
    "emergency_phone": "100",
    "type": "Police Station",
    "open_24x7": true,
    "lat": 13.0942,
    "lng": 80.2811,
    "pincode": "600001",
    "zone": "North"
  },
  {
    "id": "PS_CHN002",
    "name": "C2 Elephant Gate Police Station",
    "district": "Chennai",
    "city": "Chennai",
    "state": "Tamil Nadu",
    "address": "C2 Elephant Gate Police Station, Chennai, Tamil Nadu, 600079",
    "phone": "044-23452467",
    "emergency_phone": "100",
    "type": "Police Station",
    "open_24x7": true,
    "lat": 13.0911,
    "lng": 80.2743,
    "pincode": "600079",
    "zone": "North"
  },
  {
    "id": "PS_CHN003",
    "name": "C3 Seven Wells Police Station",
    "district": "Chennai",
    "city": "Chennai",
    "state": "Tamil Nadu",
    "address": "C3 Seven Wells Police Station, Chennai, Tamil Nadu, 600001",
    "phone": "044-23452471",
    "emergency_phone": "100",
    "type": "Police Station",
    "open_24x7": true,
    "lat": 13.1025,
    "lng": 80.2802,
    "pincode": "600001",
    "zone": "North"
  },
  {
    "id": "PS_CHN004",
    "name": "C4 Government Hospital PS",
    "district": "Chennai",
    "city": "Chennai",
    "state": "Tamil Nadu",
    "address": "C4 Government Hospital PS, Chennai, Tamil Nadu, 600003",
    "phone": "044-23452473",
    "emergency_phone": "100",
    "type": "Police Station",
    "open_24x7": true,
    "lat": 13.0824,
    "lng": 80.2751,
    "pincode": "600003",
    "zone": "North"
  },
  {
    "id": "PS_CHN005",
    "name": "C5 Kothavalchavadi Police Station",
    "district": "Chennai",
    "city": "Chennai",
    "state": "Tamil Nadu",
    "address": "C5 Kothavalchavadi Police Station, Chennai, Tamil Nadu, 600001",
    "phone": "044-23452474",
    "emergency_phone": "100",
    "type": "Police Station",
    "open_24x7": true,
    "lat": 13.0978,
    "lng": 80.2854,
    "pincode": "600001",
    "zone": "North"
  },
  {
    "id": "PS_CHN006",
    "name": "B1 North Beach Police Station",
    "district": "Chennai",
    "city": "Chennai",
    "state": "Tamil Nadu",
    "address": "B1 North Beach Police Station, Chennai, Tamil Nadu, 600001",
    "phone": "044-23452457",
    "emergency_phone": "100",
    "type": "Police Station",
    "open_24x7": true,
    "lat": 13.1011,
    "lng": 80.2915,
    "pincode": "600001",
    "zone": "North"
  },
  {
    "id": "PS_CHN007",
    "name": "B2 Esplanade Police Station",
    "district": "Chennai",
    "city": "Chennai",
    "state": "Tamil Nadu",
    "address": "B2 Esplanade Police Station, Chennai, Tamil Nadu, 600104",
    "phone": "044-23452458",
    "emergency_phone": "100",
    "type": "Police Station",
    "open_24x7": true,
    "lat": 13.0894,
    "lng": 80.2839,
    "pincode": "600104",
    "zone": "North"
  },
  {
    "id": "PS_CHN008",
    "name": "B3 Fort Police Station",
    "district": "Chennai",
    "city": "Chennai",
    "state": "Tamil Nadu",
    "address": "B3 Fort Police Station, Chennai, Tamil Nadu, 600009",
    "phone": "044-23452460",
    "emergency_phone": "100",
    "type": "Police Station",
    "open_24x7": true,
    "lat": 13.0792,
    "lng": 80.2874,
    "pincode": "600009",
    "zone": "North"
  },
  {
    "id": "PS_CHN009",
    "name": "B4 High Court Police Station",
    "district": "Chennai",
    "city": "Chennai",
    "state": "Tamil Nadu",
    "address": "B4 High Court Police Station, Chennai, Tamil Nadu, 600104",
    "phone": "044-23452462",
    "emergency_phone": "100",
    "type": "Police Station",
    "open_24x7": true,
    "lat": 13.0878,
    "lng": 80.2842,
    "pincode": "600104",
    "zone": "North"
  },
  {
    "id": "PS_CHN010",
    "name": "B5 Harbour Police Station",
    "district": "Chennai",
    "city": "Chennai",
    "state": "Tamil Nadu",
    "address": "B5 Harbour Police Station, Chennai, Tamil Nadu, 600001",
    "phone": "044-23452500",
    "emergency_phone": "100",
    "type": "Police Station",
    "open_24x7": true,
    "lat": 13.0954,
    "lng": 80.2931,
    "pincode": "600001",
    "zone": "North"
  },
  {
    "id": "PS_CHN011",
    "name": "B6 Port Marine Police Station",
    "district": "Chennai",
    "city": "Chennai",
    "state": "Tamil Nadu",
    "address": "B6 Port Marine Police Station, Chennai, Tamil Nadu, 600001",
    "phone": "044-23452502",
    "emergency_phone": "100",
    "type": "Police Station",
    "open_24x7": true,
    "lat": 13.0901,
    "lng": 80.2965,
    "pincode": "600001",
    "zone": "North"
  },
  {
    "id": "PS_CHN012",
    "name": "N1 Royapuram Police Station",
    "district": "Chennai",
    "city": "Chennai",
    "state": "Tamil Nadu",
    "address": "N1 Royapuram Police Station, Chennai, Tamil Nadu, 600013",
    "phone": "044-23452504",
    "emergency_phone": "100",
    "type": "Police Station",
    "open_24x7": true,
    "lat": 13.1114,
    "lng": 80.2922,
    "pincode": "600013",
    "zone": "North"
  },
  {
    "id": "PS_CHN013",
    "name": "N2 Kasimedu Police Station",
    "district": "Chennai",
    "city": "Chennai",
    "state": "Tamil Nadu",
    "address": "N2 Kasimedu Police Station, Chennai, Tamil Nadu, 600013",
    "phone": "044-23452511",
    "emergency_phone": "100",
    "type": "Police Station",
    "open_24x7": true,
    "lat": 13.1232,
    "lng": 80.2954,
    "pincode": "600013",
    "zone": "North"
  },
  {
    "id": "PS_CHN014",
    "name": "N3 Muthialpet Police Station",
    "district": "Chennai",
    "city": "Chennai",
    "state": "Tamil Nadu",
    "address": "N3 Muthialpet Police Station, Chennai, Tamil Nadu, 600001",
    "phone": "044-23452514",
    "emergency_phone": "100",
    "type": "Police Station",
    "open_24x7": true,
    "lat": 13.1058,
    "lng": 80.2891,
    "pincode": "600001",
    "zone": "North"
  },
  {
    "id": "PS_CHN015",
    "name": "N4 Fishing Harbour PS",
    "district": "Chennai",
    "city": "Chennai",
    "state": "Tamil Nadu",
    "address": "N4 Fishing Harbour PS, Chennai, Tamil Nadu, 600013",
    "phone": "044-23452517",
    "emergency_phone": "100",
    "type": "Police Station",
    "open_24x7": true,
    "lat": 13.1189,
    "lng": 80.2974,
    "pincode": "600013",
    "zone": "North"
  },
  {
    "id": "PS_CHN016",
    "name": "H1 Washermanpet Police Station",
    "district": "Chennai",
    "city": "Chennai",
    "state": "Tamil Nadu",
    "address": "H1 Washermanpet Police Station, Chennai, Tamil Nadu, 600021",
    "phone": "044-23452481",
    "emergency_phone": "100",
    "type": "Police Station",
    "open_24x7": true,
    "lat": 13.1102,
    "lng": 80.2798,
    "pincode": "600021",
    "zone": "North"
  },
  {
    "id": "PS_CHN017",
    "name": "H3 Tondiarpet Police Station",
    "district": "Chennai",
    "city": "Chennai",
    "state": "Tamil Nadu",
    "address": "H3 Tondiarpet Police Station, Chennai, Tamil Nadu, 600081",
    "phone": "044-23452485",
    "emergency_phone": "100",
    "type": "Police Station",
    "open_24x7": true,
    "lat": 13.1251,
    "lng": 80.2825,
    "pincode": "600081",
    "zone": "North"
  },
  {
    "id": "PS_CHN018",
    "name": "H4 Korukkupet Police Station",
    "district": "Chennai",
    "city": "Chennai",
    "state": "Tamil Nadu",
    "address": "H4 Korukkupet Police Station, Chennai, Tamil Nadu, 600021",
    "phone": "044-23452488",
    "emergency_phone": "100",
    "type": "Police Station",
    "open_24x7": true,
    "lat": 13.1184,
    "lng": 80.2691,
    "pincode": "600021",
    "zone": "North"
  },
  {
    "id": "PS_CHN019",
    "name": "H6 R.K. Nagar Police Station",
    "district": "Chennai",
    "city": "Chennai",
    "state": "Tamil Nadu",
    "address": "H6 R.K. Nagar Police Station, Chennai, Tamil Nadu, 600081",
    "phone": "044-23452493",
    "emergency_phone": "100",
    "type": "Police Station",
    "open_24x7": true,
    "lat": 13.1345,
    "lng": 80.2848,
    "pincode": "600081",
    "zone": "North"
  },
  {
    "id": "PS_CHN020",
    "name": "M1 Madhavaram Police Station",
    "district": "Chennai",
    "city": "Chennai",
    "state": "Tamil Nadu",
    "address": "M1 Madhavaram Police Station, Chennai, Tamil Nadu, 600060",
    "phone": "044-23452783",
    "emergency_phone": "100",
    "type": "Police Station",
    "open_24x7": true,
    "lat": 13.1492,
    "lng": 80.2314,
    "pincode": "600060",
    "zone": "North"
  },
  {
    "id": "PS_CHN021",
    "name": "M2 Milk Colony Police Station",
    "district": "Chennai",
    "city": "Chennai",
    "state": "Tamil Nadu",
    "address": "M2 Milk Colony Police Station, Chennai, Tamil Nadu, 600051",
    "phone": "044-25550851",
    "emergency_phone": "100",
    "type": "Police Station",
    "open_24x7": true,
    "lat": 13.1534,
    "lng": 80.2425,
    "pincode": "600051",
    "zone": "North"
  },
  {
    "id": "PS_CHN022",
    "name": "M3 Puzhal Police Station",
    "district": "Chennai",
    "city": "Chennai",
    "state": "Tamil Nadu",
    "address": "M3 Puzhal Police Station, Chennai, Tamil Nadu, 600066",
    "phone": "044-26590989",
    "emergency_phone": "100",
    "type": "Police Station",
    "open_24x7": true,
    "lat": 13.1558,
    "lng": 80.2014,
    "pincode": "600066",
    "zone": "North"
  },
  {
    "id": "PS_CHN023",
    "name": "E1 Mylapore Police Station",
    "district": "Chennai",
    "city": "Chennai",
    "state": "Tamil Nadu",
    "address": "E1 Mylapore Police Station, Chennai, Tamil Nadu, 600004",
    "phone": "044-23452571",
    "emergency_phone": "100",
    "type": "Police Station",
    "open_24x7": true,
    "lat": 13.0336,
    "lng": 80.2681,
    "pincode": "600004",
    "zone": "South"
  },
  {
    "id": "PS_CHN024",
    "name": "E2 Royapettah Police Station",
    "district": "Chennai",
    "city": "Chennai",
    "state": "Tamil Nadu",
    "address": "E2 Royapettah Police Station, Chennai, Tamil Nadu, 600014",
    "phone": "044-23452574",
    "emergency_phone": "100",
    "type": "Police Station",
    "open_24x7": true,
    "lat": 13.0514,
    "lng": 80.2612,
    "pincode": "600014",
    "zone": "South"
  },
  {
    "id": "PS_CHN025",
    "name": "E3 Teynampet Police Station",
    "district": "Chennai",
    "city": "Chennai",
    "state": "Tamil Nadu",
    "address": "E3 Teynampet Police Station, Chennai, Tamil Nadu, 600018",
    "phone": "044-23452577",
    "emergency_phone": "100",
    "type": "Police Station",
    "open_24x7": true,
    "lat": 13.0411,
    "lng": 80.2505,
    "pincode": "600018",
    "zone": "South"
  },
  {
    "id": "PS_CHN026",
    "name": "E5 Pattinapakkam PS",
    "district": "Chennai",
    "city": "Chennai",
    "state": "Tamil Nadu",
    "address": "E5 Pattinapakkam PS, Chennai, Tamil Nadu, 600028",
    "phone": "044-23452581",
    "emergency_phone": "100",
    "type": "Police Station",
    "open_24x7": true,
    "lat": 13.0248,
    "lng": 80.2789,
    "pincode": "600028",
    "zone": "South"
  },
  {
    "id": "PS_CHN027",
    "name": "D1 Triplicane Police Station",
    "district": "Chennai",
    "city": "Chennai",
    "state": "Tamil Nadu",
    "address": "D1 Triplicane Police Station, Chennai, Tamil Nadu, 600005",
    "phone": "044-23452601",
    "emergency_phone": "100",
    "type": "Police Station",
    "open_24x7": true,
    "lat": 13.0612,
    "lng": 80.2745,
    "pincode": "600005",
    "zone": "East"
  },
  {
    "id": "PS_CHN028",
    "name": "D2 Anna Salai Police Station",
    "district": "Chennai",
    "city": "Chennai",
    "state": "Tamil Nadu",
    "address": "D2 Anna Salai Police Station, Chennai, Tamil Nadu, 600002",
    "phone": "044-23452604",
    "emergency_phone": "100",
    "type": "Police Station",
    "open_24x7": true,
    "lat": 13.0645,
    "lng": 80.2614,
    "pincode": "600002",
    "zone": "East"
  },
  {
    "id": "PS_CHN029",
    "name": "D3 Ice House Police Station",
    "district": "Chennai",
    "city": "Chennai",
    "state": "Tamil Nadu",
    "address": "D3 Ice House Police Station, Chennai, Tamil Nadu, 600005",
    "phone": "044-23452607",
    "emergency_phone": "100",
    "type": "Police Station",
    "open_24x7": true,
    "lat": 13.0548,
    "lng": 80.2712,
    "pincode": "600005",
    "zone": "East"
  },
  {
    "id": "PS_CHN030",
    "name": "D5 Marina Police Station",
    "district": "Chennai",
    "city": "Chennai",
    "state": "Tamil Nadu",
    "address": "D5 Marina Police Station, Chennai, Tamil Nadu, 600005",
    "phone": "044-23452611",
    "emergency_phone": "100",
    "type": "Police Station",
    "open_24x7": true,
    "lat": 13.0498,
    "lng": 80.2801,
    "pincode": "600005",
    "zone": "South"
  },
  {
    "id": "PS_CHN031",
    "name": "D6 Chintadripet Police Station",
    "district": "Chennai",
    "city": "Chennai",
    "state": "Tamil Nadu",
    "address": "D6 Chintadripet Police Station, Chennai, Tamil Nadu, 600002",
    "phone": "044-23452614",
    "emergency_phone": "100",
    "type": "Police Station",
    "open_24x7": true,
    "lat": 13.0725,
    "lng": 80.2654,
    "pincode": "600002",
    "zone": "East"
  },
  {
    "id": "PS_CHN032",
    "name": "F1 Choolaimedu Police Station",
    "district": "Chennai",
    "city": "Chennai",
    "state": "Tamil Nadu",
    "address": "F1 Choolaimedu Police Station, Chennai, Tamil Nadu, 600094",
    "phone": "044-23452621",
    "emergency_phone": "100",
    "type": "Police Station",
    "open_24x7": true,
    "lat": 13.0614,
    "lng": 80.2248,
    "pincode": "600094",
    "zone": "Central"
  },
  {
    "id": "PS_CHN033",
    "name": "F2 Egmore Police Station",
    "district": "Chennai",
    "city": "Chennai",
    "state": "Tamil Nadu",
    "address": "F2 Egmore Police Station, Chennai, Tamil Nadu, 600008",
    "phone": "044-23452624",
    "emergency_phone": "100",
    "type": "Police Station",
    "open_24x7": true,
    "lat": 13.0784,
    "lng": 80.2589,
    "pincode": "600008",
    "zone": "Central"
  },
  {
    "id": "PS_CHN034",
    "name": "F3 Nungambakkam PS",
    "district": "Chennai",
    "city": "Chennai",
    "state": "Tamil Nadu",
    "address": "F3 Nungambakkam PS, Chennai, Tamil Nadu, 600006",
    "phone": "044-23452627",
    "emergency_phone": "100",
    "type": "Police Station",
    "open_24x7": true,
    "lat": 13.0592,
    "lng": 80.2415,
    "pincode": "600006",
    "zone": "Central"
  },
  {
    "id": "PS_CHN035",
    "name": "G1 Vepery Police Station",
    "district": "Chennai",
    "city": "Chennai",
    "state": "Tamil Nadu",
    "address": "G1 Vepery Police Station, Chennai, Tamil Nadu, 600007",
    "phone": "044-23452641",
    "emergency_phone": "100",
    "type": "Police Station",
    "open_24x7": true,
    "lat": 13.0851,
    "lng": 80.2574,
    "pincode": "600007",
    "zone": "Central"
  },
  {
    "id": "PS_CHN036",
    "name": "G2 Periamet Police Station",
    "district": "Chennai",
    "city": "Chennai",
    "state": "Tamil Nadu",
    "address": "G2 Periamet Police Station, Chennai, Tamil Nadu, 600003",
    "phone": "044-23452644",
    "emergency_phone": "100",
    "type": "Police Station",
    "open_24x7": true,
    "lat": 13.0818,
    "lng": 80.2662,
    "pincode": "600003",
    "zone": "Central"
  },
  {
    "id": "PS_CHN037",
    "name": "G3 Kilpauk Police Station",
    "district": "Chennai",
    "city": "Chennai",
    "state": "Tamil Nadu",
    "address": "G3 Kilpauk Police Station, Chennai, Tamil Nadu, 600010",
    "phone": "044-23452647",
    "emergency_phone": "100",
    "type": "Police Station",
    "open_24x7": true,
    "lat": 13.0772,
    "lng": 80.2401,
    "pincode": "600010",
    "zone": "Central"
  },
  {
    "id": "PS_CHN038",
    "name": "G5 Secretariat Colony PS",
    "district": "Chennai",
    "city": "Chennai",
    "state": "Tamil Nadu",
    "address": "G5 Secretariat Colony PS, Chennai, Tamil Nadu, 600010",
    "phone": "044-23452651",
    "emergency_phone": "100",
    "type": "Police Station",
    "open_24x7": true,
    "lat": 13.0854,
    "lng": 80.2458,
    "pincode": "600010",
    "zone": "Central"
  },
  {
    "id": "PS_CHN039",
    "name": "G7 Chetpet Police Station",
    "district": "Chennai",
    "city": "Chennai",
    "state": "Tamil Nadu",
    "address": "G7 Chetpet Police Station, Chennai, Tamil Nadu, 600031",
    "phone": "044-23452654",
    "emergency_phone": "100",
    "type": "Police Station",
    "open_24x7": true,
    "lat": 13.0694,
    "lng": 80.2442,
    "pincode": "600031",
    "zone": "Central"
  },
  {
    "id": "PS_CHN040",
    "name": "K1 Sembium Police Station",
    "district": "Chennai",
    "city": "Chennai",
    "state": "Tamil Nadu",
    "address": "K1 Sembium Police Station, Chennai, Tamil Nadu, 600011",
    "phone": "044-23452710",
    "emergency_phone": "100",
    "type": "Police Station",
    "open_24x7": true,
    "lat": 13.1141,
    "lng": 80.2432,
    "pincode": "600011",
    "zone": "West"
  },
  {
    "id": "PS_CHN041",
    "name": "K3 Aminjikarai Police Station",
    "district": "Chennai",
    "city": "Chennai",
    "state": "Tamil Nadu",
    "address": "K3 Aminjikarai Police Station, Chennai, Tamil Nadu, 600029",
    "phone": "044-23452716",
    "emergency_phone": "100",
    "type": "Police Station",
    "open_24x7": true,
    "lat": 13.0711,
    "lng": 80.2189,
    "pincode": "600029",
    "zone": "West"
  },
  {
    "id": "PS_CHN042",
    "name": "K4 Anna Nagar Police Station",
    "district": "Chennai",
    "city": "Chennai",
    "state": "Tamil Nadu",
    "address": "K4 Anna Nagar Police Station, Chennai, Tamil Nadu, 600040",
    "phone": "044-23452719",
    "emergency_phone": "100",
    "type": "Police Station",
    "open_24x7": true,
    "lat": 13.0848,
    "lng": 80.2114,
    "pincode": "600040",
    "zone": "West"
  },
  {
    "id": "PS_CHN043",
    "name": "K5 Peravallur Police Station",
    "district": "Chennai",
    "city": "Chennai",
    "state": "Tamil Nadu",
    "address": "K5 Peravallur Police Station, Chennai, Tamil Nadu, 600082",
    "phone": "044-23452727",
    "emergency_phone": "100",
    "type": "Police Station",
    "open_24x7": true,
    "lat": 13.1185,
    "lng": 80.2312,
    "pincode": "600082",
    "zone": "West"
  },
  {
    "id": "PS_CHN044",
    "name": "K6 J.J. Nagar Police Station",
    "district": "Chennai",
    "city": "Chennai",
    "state": "Tamil Nadu",
    "address": "K6 J.J. Nagar Police Station, Chennai, Tamil Nadu, 600037",
    "phone": "044-23452730",
    "emergency_phone": "100",
    "type": "Police Station",
    "open_24x7": true,
    "lat": 13.0812,
    "lng": 80.1854,
    "pincode": "600037",
    "zone": "West"
  },
  {
    "id": "PS_CHN045",
    "name": "K9 Thiru Vi Ka Nagar PS",
    "district": "Chennai",
    "city": "Chennai",
    "state": "Tamil Nadu",
    "address": "K9 Thiru Vi Ka Nagar PS, Chennai, Tamil Nadu, 600082",
    "phone": "044-23452736",
    "emergency_phone": "100",
    "type": "Police Station",
    "open_24x7": true,
    "lat": 13.1119,
    "lng": 80.2285,
    "pincode": "600082",
    "zone": "West"
  },
  {
    "id": "PS_CHN046",
    "name": "K10 Koyambedu Police Station",
    "district": "Chennai",
    "city": "Chennai",
    "state": "Tamil Nadu",
    "address": "K10 Koyambedu Police Station, Chennai, Tamil Nadu, 600107",
    "phone": "044-23452714",
    "emergency_phone": "100",
    "type": "Police Station",
    "open_24x7": true,
    "lat": 13.0691,
    "lng": 80.2032,
    "pincode": "600107",
    "zone": "West"
  },
  {
    "id": "PS_CHN047",
    "name": "K8 Arumbakkam Police Station",
    "district": "Chennai",
    "city": "Chennai",
    "state": "Tamil Nadu",
    "address": "K8 Arumbakkam Police Station, Chennai, Tamil Nadu, 600106",
    "phone": "044-23452741",
    "emergency_phone": "100",
    "type": "Police Station",
    "open_24x7": true,
    "lat": 13.0642,
    "lng": 80.2104,
    "pincode": "600106",
    "zone": "West"
  },
  {
    "id": "PS_CHN048",
    "name": "P1 Pulianthope Police Station",
    "district": "Chennai",
    "city": "Chennai",
    "state": "Tamil Nadu",
    "address": "P1 Pulianthope Police Station, Chennai, Tamil Nadu, 600012",
    "phone": "044-23452521",
    "emergency_phone": "100",
    "type": "Police Station",
    "open_24x7": true,
    "lat": 13.0984,
    "lng": 80.2612,
    "pincode": "600012",
    "zone": "West"
  },
  {
    "id": "PS_CHN049",
    "name": "P3 Vyasarpadi Police Station",
    "district": "Chennai",
    "city": "Chennai",
    "state": "Tamil Nadu",
    "address": "P3 Vyasarpadi Police Station, Chennai, Tamil Nadu, 600039",
    "phone": "044-23452527",
    "emergency_phone": "100",
    "type": "Police Station",
    "open_24x7": true,
    "lat": 13.1105,
    "lng": 80.2601,
    "pincode": "600039",
    "zone": "West"
  },
  {
    "id": "PS_CHN050",
    "name": "P5 MKB Nagar Police Station",
    "district": "Chennai",
    "city": "Chennai",
    "state": "Tamil Nadu",
    "address": "P5 MKB Nagar Police Station, Chennai, Tamil Nadu, 600039",
    "phone": "044-23452531",
    "emergency_phone": "100",
    "type": "Police Station",
    "open_24x7": true,
    "lat": 13.1158,
    "lng": 80.2524,
    "pincode": "600039",
    "zone": "West"
  },
  {
    "id": "PS_CHN051",
    "name": "J1 Saidapet Police Station",
    "district": "Chennai",
    "city": "Chennai",
    "state": "Tamil Nadu",
    "address": "J1 Saidapet Police Station, Chennai, Tamil Nadu, 600015",
    "phone": "044-23452561",
    "emergency_phone": "100",
    "type": "Police Station",
    "open_24x7": true,
    "lat": 13.0214,
    "lng": 80.2231,
    "pincode": "600015",
    "zone": "South"
  },
  {
    "id": "PS_CHN052",
    "name": "J2 Adyar Police Station",
    "district": "Chennai",
    "city": "Chennai",
    "state": "Tamil Nadu",
    "address": "J2 Adyar Police Station, Chennai, Tamil Nadu, 600020",
    "phone": "044-23452564",
    "emergency_phone": "100",
    "type": "Police Station",
    "open_24x7": true,
    "lat": 13.0064,
    "lng": 80.2548,
    "pincode": "600020",
    "zone": "South"
  },
  {
    "id": "PS_CHN053",
    "name": "J3 Guindy Police Station",
    "district": "Chennai",
    "city": "Chennai",
    "state": "Tamil Nadu",
    "address": "J3 Guindy Police Station, Chennai, Tamil Nadu, 600032",
    "phone": "044-23452567",
    "emergency_phone": "100",
    "type": "Police Station",
    "open_24x7": true,
    "lat": 13.0092,
    "lng": 80.2131,
    "pincode": "600032",
    "zone": "South"
  },
  {
    "id": "PS_CHN054",
    "name": "J4 Kotturpuram Police Station",
    "district": "Chennai",
    "city": "Chennai",
    "state": "Tamil Nadu",
    "address": "J4 Kotturpuram Police Station, Chennai, Tamil Nadu, 600085",
    "phone": "044-23452570",
    "emergency_phone": "100",
    "type": "Police Station",
    "open_24x7": true,
    "lat": 13.0185,
    "lng": 80.2414,
    "pincode": "600085",
    "zone": "South"
  },
  {
    "id": "PS_CHN055",
    "name": "J5 Shastri Nagar Police Station",
    "district": "Chennai",
    "city": "Chennai",
    "state": "Tamil Nadu",
    "address": "J5 Shastri Nagar Police Station, Chennai, Tamil Nadu, 600020",
    "phone": "044-23452586",
    "emergency_phone": "100",
    "type": "Police Station",
    "open_24x7": true,
    "lat": 12.9972,
    "lng": 80.2604,
    "pincode": "600020",
    "zone": "South"
  },
  {
    "id": "PS_CHN056",
    "name": "J6 Thiruvanmiyur Police Station",
    "district": "Chennai",
    "city": "Chennai",
    "state": "Tamil Nadu",
    "address": "J6 Thiruvanmiyur Police Station, Chennai, Tamil Nadu, 600041",
    "phone": "044-23452589",
    "emergency_phone": "100",
    "type": "Police Station",
    "open_24x7": true,
    "lat": 12.9878,
    "lng": 80.2589,
    "pincode": "600041",
    "zone": "South"
  },
  {
    "id": "PS_CHN057",
    "name": "J13 Taramani Police Station",
    "district": "Chennai",
    "city": "Chennai",
    "state": "Tamil Nadu",
    "address": "J13 Taramani Police Station, Chennai, Tamil Nadu, 600113",
    "phone": "044-23452591",
    "emergency_phone": "100",
    "type": "Police Station",
    "open_24x7": true,
    "lat": 12.9891,
    "lng": 80.2312,
    "pincode": "600113",
    "zone": "South"
  },
  {
    "id": "PS_CHN058",
    "name": "J12 Kanathur Police Station",
    "district": "Chennai",
    "city": "Chennai",
    "state": "Tamil Nadu",
    "address": "J12 Kanathur Police Station, Chennai, Tamil Nadu, 603112",
    "phone": "044-23452594",
    "emergency_phone": "100",
    "type": "Police Station",
    "open_24x7": true,
    "lat": 12.8683,
    "lng": 80.2452,
    "pincode": "603112",
    "zone": "South-Suburban"
  },
  {
    "id": "PS_CHN059",
    "name": "R1 Mambalam Police Station",
    "district": "Chennai",
    "city": "Chennai",
    "state": "Tamil Nadu",
    "address": "R1 Mambalam Police Station, Chennai, Tamil Nadu, 600017",
    "phone": "044-23452541",
    "emergency_phone": "100",
    "type": "Police Station",
    "open_24x7": true,
    "lat": 13.0361,
    "lng": 80.2301,
    "pincode": "600017",
    "zone": "South"
  },
  {
    "id": "PS_CHN060",
    "name": "R2 Kodambakkam Police Station",
    "district": "Chennai",
    "city": "Chennai",
    "state": "Tamil Nadu",
    "address": "R2 Kodambakkam Police Station, Chennai, Tamil Nadu, 600024",
    "phone": "044-23452544",
    "emergency_phone": "100",
    "type": "Police Station",
    "open_24x7": true,
    "lat": 13.0472,
    "lng": 80.2214,
    "pincode": "600024",
    "zone": "South"
  },
  {
    "id": "PS_CHN061",
    "name": "R3 Ashok Nagar Police Station",
    "district": "Chennai",
    "city": "Chennai",
    "state": "Tamil Nadu",
    "address": "R3 Ashok Nagar Police Station, Chennai, Tamil Nadu, 600083",
    "phone": "044-23452547",
    "emergency_phone": "100",
    "type": "Police Station",
    "open_24x7": true,
    "lat": 13.0354,
    "lng": 80.2112,
    "pincode": "600083",
    "zone": "South"
  },
  {
    "id": "PS_CHN062",
    "name": "R4 Pondy Bazaar Police Station",
    "district": "Chennai",
    "city": "Chennai",
    "state": "Tamil Nadu",
    "address": "R4 Pondy Bazaar Police Station, Chennai, Tamil Nadu, 600017",
    "phone": "044-23452551",
    "emergency_phone": "100",
    "type": "Police Station",
    "open_24x7": true,
    "lat": 13.0415,
    "lng": 80.2351,
    "pincode": "600017",
    "zone": "South"
  },
  {
    "id": "PS_CHN063",
    "name": "R5 Virugambakkam Police Station",
    "district": "Chennai",
    "city": "Chennai",
    "state": "Tamil Nadu",
    "address": "R5 Virugambakkam Police Station, Chennai, Tamil Nadu, 600092",
    "phone": "044-23452554",
    "emergency_phone": "100",
    "type": "Police Station",
    "open_24x7": true,
    "lat": 13.0511,
    "lng": 80.1914,
    "pincode": "600092",
    "zone": "South"
  },
  {
    "id": "PS_CHN064",
    "name": "R7 K.K. Nagar Police Station",
    "district": "Chennai",
    "city": "Chennai",
    "state": "Tamil Nadu",
    "address": "R7 K.K. Nagar Police Station, Chennai, Tamil Nadu, 600078",
    "phone": "044-23452557",
    "emergency_phone": "100",
    "type": "Police Station",
    "open_24x7": true,
    "lat": 13.0322,
    "lng": 80.1989,
    "pincode": "600078",
    "zone": "South"
  },
  {
    "id": "PS_CHN065",
    "name": "R8 Vadapalani Police Station",
    "district": "Chennai",
    "city": "Chennai",
    "state": "Tamil Nadu",
    "address": "R8 Vadapalani Police Station, Chennai, Tamil Nadu, 600026",
    "phone": "044-23452559",
    "emergency_phone": "100",
    "type": "Police Station",
    "open_24x7": true,
    "lat": 13.0525,
    "lng": 80.2104,
    "pincode": "600026",
    "zone": "South"
  },
  {
    "id": "PS_CHN066",
    "name": "R9 Valasaravakkam Police Station",
    "district": "Chennai",
    "city": "Chennai",
    "state": "Tamil Nadu",
    "address": "R9 Valasaravakkam Police Station, Chennai, Tamil Nadu, 600087",
    "phone": "044-23452563",
    "emergency_phone": "100",
    "type": "Police Station",
    "open_24x7": true,
    "lat": 13.0418,
    "lng": 80.1742,
    "pincode": "600087",
    "zone": "South-Suburban"
  },
  {
    "id": "PS_CHN067",
    "name": "S1 St. Thomas Mount PS",
    "district": "Chennai",
    "city": "Chennai",
    "state": "Tamil Nadu",
    "address": "S1 St. Thomas Mount PS, Chennai, Tamil Nadu, 600016",
    "phone": "044-23452661",
    "emergency_phone": "100",
    "type": "Police Station",
    "open_24x7": true,
    "lat": 13.0031,
    "lng": 80.1985,
    "pincode": "600016",
    "zone": "Tambaram"
  },
  {
    "id": "PS_CHN068",
    "name": "S2 Adambakkam Police Station",
    "district": "Chennai",
    "city": "Chennai",
    "state": "Tamil Nadu",
    "address": "S2 Adambakkam Police Station, Chennai, Tamil Nadu, 600088",
    "phone": "044-23452664",
    "emergency_phone": "100",
    "type": "Police Station",
    "open_24x7": true,
    "lat": 12.9914,
    "lng": 80.2105,
    "pincode": "600088",
    "zone": "Tambaram"
  },
  {
    "id": "PS_CHN069",
    "name": "S3 Meenambakkam Police Station",
    "district": "Chennai",
    "city": "Chennai",
    "state": "Tamil Nadu",
    "address": "S3 Meenambakkam Police Station, Chennai, Tamil Nadu, 600027",
    "phone": "044-23452667",
    "emergency_phone": "100",
    "type": "Police Station",
    "open_24x7": true,
    "lat": 12.9854,
    "lng": 80.1751,
    "pincode": "600027",
    "zone": "Tambaram"
  },
  {
    "id": "PS_CHN070",
    "name": "S4 Nandambakkam Police Station",
    "district": "Chennai",
    "city": "Chennai",
    "state": "Tamil Nadu",
    "address": "S4 Nandambakkam Police Station, Chennai, Tamil Nadu, 600089",
    "phone": "044-23452671",
    "emergency_phone": "100",
    "type": "Police Station",
    "open_24x7": true,
    "lat": 13.0169,
    "lng": 80.1858,
    "pincode": "600089",
    "zone": "Tambaram"
  },
  {
    "id": "PS_CHN071",
    "name": "S5 Pallavaram Police Station",
    "district": "Chennai",
    "city": "Chennai",
    "state": "Tamil Nadu",
    "address": "S5 Pallavaram Police Station, Chennai, Tamil Nadu, 600043",
    "phone": "044-23452674",
    "emergency_phone": "100",
    "type": "Police Station",
    "open_24x7": true,
    "lat": 12.9674,
    "lng": 80.1492,
    "pincode": "600043",
    "zone": "Tambaram"
  },
  {
    "id": "PS_CHN072",
    "name": "S6 Shankar Nagar Police Station",
    "district": "Chennai",
    "city": "Chennai",
    "state": "Tamil Nadu",
    "address": "S6 Shankar Nagar Police Station, Chennai, Tamil Nadu, 600075",
    "phone": "044-23452677",
    "emergency_phone": "100",
    "type": "Police Station",
    "open_24x7": true,
    "lat": 12.9592,
    "lng": 80.1311,
    "pincode": "600075",
    "zone": "Tambaram"
  },
  {
    "id": "PS_CHN073",
    "name": "S7 Chitlapakkam Police Station",
    "district": "Chennai",
    "city": "Chennai",
    "state": "Tamil Nadu",
    "address": "S7 Chitlapakkam Police Station, Chennai, Tamil Nadu, 600064",
    "phone": "044-23452681",
    "emergency_phone": "100",
    "type": "Police Station",
    "open_24x7": true,
    "lat": 12.9348,
    "lng": 80.1345,
    "pincode": "600064",
    "zone": "Tambaram"
  },
  {
    "id": "PS_CHN074",
    "name": "S8 Tambaram Police Station",
    "district": "Chennai",
    "city": "Chennai",
    "state": "Tamil Nadu",
    "address": "S8 Tambaram Police Station, Chennai, Tamil Nadu, 600045",
    "phone": "044-23452684",
    "emergency_phone": "100",
    "type": "Police Station",
    "open_24x7": true,
    "lat": 12.9254,
    "lng": 80.1174,
    "pincode": "600045",
    "zone": "Tambaram"
  },
  {
    "id": "PS_CHN075",
    "name": "S9 Peerkankaranai Police Station",
    "district": "Chennai",
    "city": "Chennai",
    "state": "Tamil Nadu",
    "address": "S9 Peerkankaranai Police Station, Chennai, Tamil Nadu, 600063",
    "phone": "044-23452687",
    "emergency_phone": "100",
    "type": "Police Station",
    "open_24x7": true,
    "lat": 12.9112,
    "lng": 80.0989,
    "pincode": "600063",
    "zone": "Tambaram"
  },
  {
    "id": "PS_CHN076",
    "name": "S10 Pallikaranai Police Station",
    "district": "Chennai",
    "city": "Chennai",
    "state": "Tamil Nadu",
    "address": "S10 Pallikaranai Police Station, Chennai, Tamil Nadu, 600100",
    "phone": "044-23452691",
    "emergency_phone": "100",
    "type": "Police Station",
    "open_24x7": true,
    "lat": 12.9411,
    "lng": 80.2142,
    "pincode": "600100",
    "zone": "Tambaram"
  },
  {
    "id": "PS_CHN077",
    "name": "S11 Selaiyur Police Station",
    "district": "Chennai",
    "city": "Chennai",
    "state": "Tamil Nadu",
    "address": "S11 Selaiyur Police Station, Chennai, Tamil Nadu, 600073",
    "phone": "044-23452694",
    "emergency_phone": "100",
    "type": "Police Station",
    "open_24x7": true,
    "lat": 12.9189,
    "lng": 80.1384,
    "pincode": "600073",
    "zone": "Tambaram"
  },
  {
    "id": "PS_CHN078",
    "name": "S12 Madipakkam Police Station",
    "district": "Chennai",
    "city": "Chennai",
    "state": "Tamil Nadu",
    "address": "S12 Madipakkam Police Station, Chennai, Tamil Nadu, 600091",
    "phone": "044-23452697",
    "emergency_phone": "100",
    "type": "Police Station",
    "open_24x7": true,
    "lat": 12.9614,
    "lng": 80.2011,
    "pincode": "600091",
    "zone": "Tambaram"
  },
  {
    "id": "PS_CHN079",
    "name": "S13 Chromepet Police Station",
    "district": "Chennai",
    "city": "Chennai",
    "state": "Tamil Nadu",
    "address": "S13 Chromepet Police Station, Chennai, Tamil Nadu, 600044",
    "phone": "044-23452701",
    "emergency_phone": "100",
    "type": "Police Station",
    "open_24x7": true,
    "lat": 12.9511,
    "lng": 80.1412,
    "pincode": "600044",
    "zone": "Tambaram"
  },
  {
    "id": "PS_CHN080",
    "name": "S14 Kundrathur Police Station",
    "district": "Chennai",
    "city": "Chennai",
    "state": "Tamil Nadu",
    "address": "S14 Kundrathur Police Station, Chennai, Tamil Nadu, 600069",
    "phone": "044-23452704",
    "emergency_phone": "100",
    "type": "Police Station",
    "open_24x7": true,
    "lat": 13.0051,
    "lng": 80.0974,
    "pincode": "600069",
    "zone": "Tambaram"
  },
  {
    "id": "PS_CHN081",
    "name": "S15 Velachery Police Station",
    "district": "Chennai",
    "city": "Chennai",
    "state": "Tamil Nadu",
    "address": "S15 Velachery Police Station, Chennai, Tamil Nadu, 600042",
    "phone": "044-23452707",
    "emergency_phone": "100",
    "type": "Police Station",
    "open_24x7": true,
    "lat": 12.9814,
    "lng": 80.2225,
    "pincode": "600042",
    "zone": "South"
  },
  {
    "id": "PS_CHN082",
    "name": "T1 Ambattur Police Station",
    "district": "Chennai",
    "city": "Chennai",
    "state": "Tamil Nadu",
    "address": "T1 Ambattur Police Station, Chennai, Tamil Nadu, 600053",
    "phone": "044-23452751",
    "emergency_phone": "100",
    "type": "Police Station",
    "open_24x7": true,
    "lat": 13.1114,
    "lng": 80.1542,
    "pincode": "600053",
    "zone": "Avadi"
  },
  {
    "id": "PS_CHN083",
    "name": "T2 Ambattur OT Police Station",
    "district": "Chennai",
    "city": "Chennai",
    "state": "Tamil Nadu",
    "address": "T2 Ambattur OT Police Station, Chennai, Tamil Nadu, 600053",
    "phone": "044-23452754",
    "emergency_phone": "100",
    "type": "Police Station",
    "open_24x7": true,
    "lat": 13.1192,
    "lng": 80.1481,
    "pincode": "600053",
    "zone": "Avadi"
  },
  {
    "id": "PS_CHN084",
    "name": "T3 Korattur Police Station",
    "district": "Chennai",
    "city": "Chennai",
    "state": "Tamil Nadu",
    "address": "T3 Korattur Police Station, Chennai, Tamil Nadu, 600080",
    "phone": "044-23452757",
    "emergency_phone": "100",
    "type": "Police Station",
    "open_24x7": true,
    "lat": 13.1124,
    "lng": 80.1814,
    "pincode": "600080",
    "zone": "Avadi"
  },
  {
    "id": "PS_CHN085",
    "name": "T4 Thirumullaivoyal PS",
    "district": "Chennai",
    "city": "Chennai",
    "state": "Tamil Nadu",
    "address": "T4 Thirumullaivoyal PS, Chennai, Tamil Nadu, 600062",
    "phone": "044-23452761",
    "emergency_phone": "100",
    "type": "Police Station",
    "open_24x7": true,
    "lat": 13.1311,
    "lng": 80.1312,
    "pincode": "600062",
    "zone": "Avadi"
  },
  {
    "id": "PS_CHN086",
    "name": "T5 Avadi Police Station",
    "district": "Chennai",
    "city": "Chennai",
    "state": "Tamil Nadu",
    "address": "T5 Avadi Police Station, Chennai, Tamil Nadu, 600054",
    "phone": "044-23452764",
    "emergency_phone": "100",
    "type": "Police Station",
    "open_24x7": true,
    "lat": 13.1169,
    "lng": 80.1011,
    "pincode": "600054",
    "zone": "Avadi"
  },
  {
    "id": "PS_CHN087",
    "name": "T6 Tank Factory Police Station",
    "district": "Chennai",
    "city": "Chennai",
    "state": "Tamil Nadu",
    "address": "T6 Tank Factory Police Station, Chennai, Tamil Nadu, 600054",
    "phone": "044-23452767",
    "emergency_phone": "100",
    "type": "Police Station",
    "open_24x7": true,
    "lat": 13.1258,
    "lng": 80.0894,
    "pincode": "600054",
    "zone": "Avadi"
  },
  {
    "id": "PS_CHN088",
    "name": "T7 Pattabiram Police Station",
    "district": "Chennai",
    "city": "Chennai",
    "state": "Tamil Nadu",
    "address": "T7 Pattabiram Police Station, Chennai, Tamil Nadu, 600072",
    "phone": "044-23452771",
    "emergency_phone": "100",
    "type": "Police Station",
    "open_24x7": true,
    "lat": 13.1184,
    "lng": 80.0625,
    "pincode": "600072",
    "zone": "Avadi"
  },
  {
    "id": "PS_CHN089",
    "name": "T8 Muthapudupet Police Station",
    "district": "Chennai",
    "city": "Chennai",
    "state": "Tamil Nadu",
    "address": "T8 Muthapudupet Police Station, Chennai, Tamil Nadu, 600055",
    "phone": "044-23452774",
    "emergency_phone": "100",
    "type": "Police Station",
    "open_24x7": true,
    "lat": 13.1491,
    "lng": 80.0712,
    "pincode": "600055",
    "zone": "Avadi"
  },
  {
    "id": "PS_CHN090",
    "name": "V1 Villivakkam Police Station",
    "district": "Chennai",
    "city": "Chennai",
    "state": "Tamil Nadu",
    "address": "V1 Villivakkam Police Station, Chennai, Tamil Nadu, 600049",
    "phone": "044-23452721",
    "emergency_phone": "100",
    "type": "Police Station",
    "open_24x7": true,
    "lat": 13.1022,
    "lng": 80.2054,
    "pincode": "600049",
    "zone": "Central"
  },
  {
    "id": "PS_CHN091",
    "name": "V2 Kolathur Police Station",
    "district": "Chennai",
    "city": "Chennai",
    "state": "Tamil Nadu",
    "address": "V2 Kolathur Police Station, Chennai, Tamil Nadu, 600099",
    "phone": "044-23452724",
    "emergency_phone": "100",
    "type": "Police Station",
    "open_24x7": true,
    "lat": 13.1198,
    "lng": 80.2114,
    "pincode": "600099",
    "zone": "Central"
  },
  {
    "id": "PS_CHN092",
    "name": "V3 J.J. Nagar Police Station",
    "district": "Chennai",
    "city": "Chennai",
    "state": "Tamil Nadu",
    "address": "V3 J.J. Nagar Police Station, Chennai, Tamil Nadu, 600037",
    "phone": "044-23452731",
    "emergency_phone": "100",
    "type": "Police Station",
    "open_24x7": true,
    "lat": 13.0845,
    "lng": 80.1742,
    "pincode": "600037",
    "zone": "Central"
  },
  {
    "id": "PS_CHN093",
    "name": "V4 Rajamangalam Police Station",
    "district": "Chennai",
    "city": "Chennai",
    "state": "Tamil Nadu",
    "address": "V4 Rajamangalam Police Station, Chennai, Tamil Nadu, 600099",
    "phone": "044-23452734",
    "emergency_phone": "100",
    "type": "Police Station",
    "open_24x7": true,
    "lat": 13.1101,
    "lng": 80.2012,
    "pincode": "600099",
    "zone": "Central"
  },
  {
    "id": "PS_CHN094",
    "name": "W1 All Women PS, Kilpauk",
    "district": "Chennai",
    "city": "Chennai",
    "state": "Tamil Nadu",
    "address": "W1 All Women PS, Kilpauk, Chennai, Tamil Nadu, 600010",
    "phone": "044-23452791",
    "emergency_phone": "100",
    "type": "Police Station",
    "open_24x7": true,
    "lat": 13.0769,
    "lng": 80.2405,
    "pincode": "600010",
    "zone": "Central"
  },
  {
    "id": "PS_CHN095",
    "name": "W2 All Women PS, Mylapore",
    "district": "Chennai",
    "city": "Chennai",
    "state": "Tamil Nadu",
    "address": "W2 All Women PS, Mylapore, Chennai, Tamil Nadu, 600004",
    "phone": "044-23452794",
    "emergency_phone": "100",
    "type": "Police Station",
    "open_24x7": true,
    "lat": 13.0331,
    "lng": 80.2678,
    "pincode": "600004",
    "zone": "South"
  },
  {
    "id": "PS_CHN096",
    "name": "W3 All Women PS, Saidapet",
    "district": "Chennai",
    "city": "Chennai",
    "state": "Tamil Nadu",
    "address": "W3 All Women PS, Saidapet, Chennai, Tamil Nadu, 600015",
    "phone": "044-23452797",
    "emergency_phone": "100",
    "type": "Police Station",
    "open_24x7": true,
    "lat": 13.0211,
    "lng": 80.2228,
    "pincode": "600015",
    "zone": "South"
  },
  {
    "id": "PS_CHN097",
    "name": "W4 All Women PS, T. Nagar",
    "district": "Chennai",
    "city": "Chennai",
    "state": "Tamil Nadu",
    "address": "W4 All Women PS, T. Nagar, Chennai, Tamil Nadu, 600017",
    "phone": "044-23452801",
    "emergency_phone": "100",
    "type": "Police Station",
    "open_24x7": true,
    "lat": 13.0412,
    "lng": 80.2348,
    "pincode": "600017",
    "zone": "South"
  },
  {
    "id": "PS_CHN098",
    "name": "W5 All Women PS, Anna Nagar",
    "district": "Chennai",
    "city": "Chennai",
    "state": "Tamil Nadu",
    "address": "W5 All Women PS, Anna Nagar, Chennai, Tamil Nadu, 600040",
    "phone": "044-23452804",
    "emergency_phone": "100",
    "type": "Police Station",
    "open_24x7": true,
    "lat": 13.0842,
    "lng": 80.2111,
    "pincode": "600040",
    "zone": "West"
  },
  {
    "id": "PS_CHN099",
    "name": "W6 All Women PS, Ambattur",
    "district": "Chennai",
    "city": "Chennai",
    "state": "Tamil Nadu",
    "address": "W6 All Women PS, Ambattur, Chennai, Tamil Nadu, 600053",
    "phone": "044-23452807",
    "emergency_phone": "100",
    "type": "Police Station",
    "open_24x7": true,
    "lat": 13.1111,
    "lng": 80.1539,
    "pincode": "600053",
    "zone": "Avadi"
  },
  {
    "id": "PS_CHN100",
    "name": "W7 All Women PS, Tambaram",
    "district": "Chennai",
    "city": "Chennai",
    "state": "Tamil Nadu",
    "address": "W7 All Women PS, Tambaram, Chennai, Tamil Nadu, 600045",
    "phone": "044-23452811",
    "emergency_phone": "100",
    "type": "Police Station",
    "open_24x7": true,
    "lat": 12.9251,
    "lng": 80.1171,
    "pincode": "600045",
    "zone": "Tambaram"
  }
]
