[
  {
    "id": "PS_NMK001",
    "name": "Police Station, Namakkal Town",
    "district": "Namakkal",
    "city": "Namakkal",
    "state": "Tamil Nadu",
    "address": "Police Station, Namakkal Town, Namakkal, Tamil Nadu, 637001",
    "phone": "04286-231101",
    "emergency_phone": "100",
    "type": "Police Station",
    "open_24x7": true,
    "lat": 11.2189,
    "lng": 78.1674,
    "pincode": "637001"
  },
  {
    "id": "PS_NMK002",
    "name": "Police Station, Namakkal Taluk",
    "district": "Namakkal",
    "city": "Namakkal",
    "state": "Tamil Nadu",
    "address": "Police Station, Namakkal Taluk, Namakkal, Tamil Nadu, 637001",
    "phone": "04286-231202",
    "emergency_phone": "100",
    "type": "Police Station",
    "open_24x7": true,
    "lat": 11.2114,
    "lng": 78.1592,
    "pincode": "637001"
  },
  {
    "id": "PS_NMK003",
    "name": "All Women Police Station, Namakkal",
    "district": "Namakkal",
    "city": "Namakkal",
    "state": "Tamil Nadu",
    "address": "All Women Police Station, Namakkal, Namakkal, Tamil Nadu, 637001",
    "phone": "04286-231391",
    "emergency_phone": "100",
    "type": "Police Station",
    "open_24x7": true,
    "lat": 11.2152,
    "lng": 78.1645,
    "pincode": "637001"
  },
  {
    "id": "PS_NMK004",
    "name": "Police Station, Nallipalayam",
    "district": "Namakkal",
    "city": "Namakkal",
    "state": "Tamil Nadu",
    "address": "Police Station, Nallipalayam, Namakkal, Tamil Nadu, 637003",
    "phone": "04286-224104",
    "emergency_phone": "100",
    "type": "Police Station",
    "open_24x7": true,
    "lat": 11.2422,
    "lng": 78.1512,
    "pincode": "637003"
  },
  {
    "id": "PS_NMK005",
    "name": "Police Station, Sendamangalam",
    "district": "Namakkal",
    "city": "Sendamangalam",
    "state": "Tamil Nadu",
    "address": "Police Station, Sendamangalam, Sendamangalam, Namakkal, Tamil Nadu, 637409",
    "phone": "04286-226105",
    "emergency_phone": "100",
    "type": "Police Station",
    "open_24x7": true,
    "lat": 11.2912,
    "lng": 78.2312,
    "pincode": "637409"
  },
  {
    "id": "PS_NMK006",
    "name": "Police Station, Erumaipatti",
    "district": "Namakkal",
    "city": "Erumaipatti",
    "state": "Tamil Nadu",
    "address": "Police Station, Erumaipatti, Erumaipatti, Namakkal, Tamil Nadu, 637102",
    "phone": "04286-252106",
    "emergency_phone": "100",
    "type": "Police Station",
    "open_24x7": true,
    "lat": 11.1411,
    "lng": 78.2285,
    "pincode": "637102"
  },
  {
    "id": "PS_NMK007",
    "name": "Police Station, Puduchatram",
    "district": "Namakkal",
    "city": "Puduchatram",
    "state": "Tamil Nadu",
    "address": "Police Station, Puduchatram, Puduchatram, Namakkal, Tamil Nadu, 637018",
    "phone": "04286-256107",
    "emergency_phone": "100",
    "type": "Police Station",
    "open_24x7": true,
    "lat": 11.3119,
    "lng": 78.1558,
    "pincode": "637018"
  },
  {
    "id": "PS_NMK008",
    "name": "Police Station, Mohanur",
    "district": "Namakkal",
    "city": "Mohanur",
    "state": "Tamil Nadu",
    "address": "Police Station, Mohanur, Mohanur, Namakkal, Tamil Nadu, 637015",
    "phone": "04286-253108",
    "emergency_phone": "100",
    "type": "Police Station",
    "open_24x7": true,
    "lat": 11.0418,
    "lng": 78.1411,
    "pincode": "637015"
  },
  {
    "id": "PS_NMK009",
    "name": "Police Station, Rasipuram",
    "district": "Namakkal",
    "city": "Rasipuram",
    "state": "Tamil Nadu",
    "address": "Police Station, Rasipuram, Rasipuram, Namakkal, Tamil Nadu, 637408",
    "phone": "04287-222109",
    "emergency_phone": "100",
    "type": "Police Station",
    "open_24x7": true,
    "lat": 11.4152,
    "lng": 78.1694,
    "pincode": "637408"
  },
  {
    "id": "PS_NMK010",
    "name": "All Women Police Station, Rasipuram",
    "district": "Namakkal",
    "city": "Rasipuram",
    "state": "Tamil Nadu",
    "address": "All Women Police Station, Rasipuram, Rasipuram, Namakkal, Tamil Nadu, 637408",
    "phone": "04287-222192",
    "emergency_phone": "100",
    "type": "Police Station",
    "open_24x7": true,
    "lat": 11.4114,
    "lng": 78.1654,
    "pincode": "637408"
  },
  {
    "id": "PS_NMK011",
    "name": "Police Station, Vennandur",
    "district": "Namakkal",
    "city": "Vennandur",
    "state": "Tamil Nadu",
    "address": "Police Station, Vennandur, Vennandur, Namakkal, Tamil Nadu, 637505",
    "phone": "04287-235111",
    "emergency_phone": "100",
    "type": "Police Station",
    "open_24x7": true,
    "lat": 11.5125,
    "lng": 78.1064,
    "pincode": "637505"
  },
  {
    "id": "PS_NMK012",
    "name": "Police Station, Namagiripettai",
    "district": "Namakkal",
    "city": "Namagiripettai",
    "state": "Tamil Nadu",
    "address": "Police Station, Namagiripettai, Namagiripettai, Namakkal, Tamil Nadu, 637406",
    "phone": "04287-241112",
    "emergency_phone": "100",
    "type": "Police Station",
    "open_24x7": true,
    "lat": 11.4542,
    "lng": 78.2614,
    "pincode": "637406"
  },
  {
    "id": "PS_NMK013",
    "name": "Police Station, Belukurichi",
    "district": "Namakkal",
    "city": "Belukurichi",
    "state": "Tamil Nadu",
    "address": "Police Station, Belukurichi, Belukurichi, Namakkal, Tamil Nadu, 637402",
    "phone": "04287-244113",
    "emergency_phone": "100",
    "type": "Police Station",
    "open_24x7": true,
    "lat": 11.3411,
    "lng": 78.2452,
    "pincode": "637402"
  },
  {
    "id": "PS_NMK014",
    "name": "Police Station, Tiruchengode Town",
    "district": "Namakkal",
    "city": "Tiruchengode",
    "state": "Tamil Nadu",
    "address": "Police Station, Tiruchengode Town, Tiruchengode, Namakkal, Tamil Nadu, 637211",
    "phone": "04288-252114",
    "emergency_phone": "100",
    "type": "Police Station",
    "open_24x7": true,
    "lat": 11.3812,
    "lng": 77.8925,
    "pincode": "637211"
  },
  {
    "id": "PS_NMK015",
    "name": "Police Station, Tiruchengode Rural",
    "district": "Namakkal",
    "city": "Tiruchengode",
    "state": "Tamil Nadu",
    "address": "Police Station, Tiruchengode Rural, Tiruchengode, Namakkal, Tamil Nadu, 637211",
    "phone": "04288-253115",
    "emergency_phone": "100",
    "type": "Police Station",
    "open_24x7": true,
    "lat": 11.3854,
    "lng": 77.8872,
    "pincode": "637211"
  },
  {
    "id": "PS_NMK016",
    "name": "All Women Police Station, Tiruchengode",
    "district": "Namakkal",
    "city": "Tiruchengode",
    "state": "Tamil Nadu",
    "address": "All Women Police Station, Tiruchengode, Tiruchengode, Namakkal, Tamil Nadu, 637211",
    "phone": "04288-252193",
    "emergency_phone": "100",
    "type": "Police Station",
    "open_24x7": true,
    "lat": 11.3792,
    "lng": 77.8904,
    "pincode": "637211"
  },
  {
    "id": "PS_NMK017",
    "name": "Police Station, Mallasamudram",
    "district": "Namakkal",
    "city": "Mallasamudram",
    "state": "Tamil Nadu",
    "address": "Police Station, Mallasamudram, Mallasamudram, Namakkal, Tamil Nadu, 637503",
    "phone": "04288-224117",
    "emergency_phone": "100",
    "type": "Police Station",
    "open_24x7": true,
    "lat": 11.4851,
    "lng": 77.9312,
    "pincode": "637503"
  },
  {
    "id": "PS_NMK018",
    "name": "Police Station, Elachipalayam",
    "district": "Namakkal",
    "city": "Elachipalayam",
    "state": "Tamil Nadu",
    "address": "Police Station, Elachipalayam, Elachipalayam, Namakkal, Tamil Nadu, 637202",
    "phone": "04288-244118",
    "emergency_phone": "100",
    "type": "Police Station",
    "open_24x7": true,
    "lat": 11.3452,
    "lng": 77.9854,
    "pincode": "637202"
  },
  {
    "id": "PS_NMK019",
    "name": "Police Station, Pallipalayam",
    "district": "Namakkal",
    "city": "Pallipalayam",
    "state": "Tamil Nadu",
    "address": "Police Station, Pallipalayam, Pallipalayam, Namakkal, Tamil Nadu, 638006",
    "phone": "04288-240119",
    "emergency_phone": "100",
    "type": "Police Station",
    "open_24x7": true,
    "lat": 11.3534,
    "lng": 77.7461,
    "pincode": "638006"
  },
  {
    "id": "PS_NMK020",
    "name": "Police Station, Komarapalayam",
    "district": "Namakkal",
    "city": "Komarapalayam",
    "state": "Tamil Nadu",
    "address": "Police Station, Komarapalayam, Komarapalayam, Namakkal, Tamil Nadu, 638183",
    "phone": "04288-261120",
    "emergency_phone": "100",
    "type": "Police Station",
    "open_24x7": true,
    "lat": 11.4418,
    "lng": 77.7121,
    "pincode": "638183"
  },
  {
    "id": "PS_NMK021",
    "name": "Police Station, Velur",
    "district": "Namakkal",
    "city": "Velur",
    "state": "Tamil Nadu",
    "address": "Police Station, Velur, Velur, Namakkal, Tamil Nadu, 638182",
    "phone": "04268-222121",
    "emergency_phone": "100",
    "type": "Police Station",
    "open_24x7": true,
    "lat": 11.1114,
    "lng": 77.9125,
    "pincode": "638182"
  },
  {
    "id": "PS_NMK022",
    "name": "Police Station, Paramathi",
    "district": "Namakkal",
    "city": "Paramathi",
    "state": "Tamil Nadu",
    "address": "Police Station, Paramathi, Paramathi, Namakkal, Tamil Nadu, 637207",
    "phone": "04268-252122",
    "emergency_phone": "100",
    "type": "Police Station",
    "open_24x7": true,
    "lat": 11.1694,
    "lng": 77.9554,
    "pincode": "637207"
  },
  {
    "id": "PS_NMK023",
    "name": "Police Station, Jedarpalayam",
    "district": "Namakkal",
    "city": "Jedarpalayam",
    "state": "Tamil Nadu",
    "address": "Police Station, Jedarpalayam, Jedarpalayam, Namakkal, Tamil Nadu, 637213",
    "phone": "04268-254123",
    "emergency_phone": "100",
    "type": "Police Station",
    "open_24x7": true,
    "lat": 11.1185,
    "lng": 77.7842,
    "pincode": "637213"
  },
  {
    "id": "PS_NMK024",
    "name": "Police Station, Nallur",
    "district": "Namakkal",
    "city": "Nallur",
    "state": "Tamil Nadu",
    "address": "Police Station, Nallur, Nallur, Namakkal, Tamil Nadu, 637203",
    "phone": "04268-256124",
    "emergency_phone": "100",
    "type": "Police Station",
    "open_24x7": true,
    "lat": 11.2152,
    "lng": 77.9614,
    "pincode": "637203"
  },
  {
    "id": "PS_NMK025",
    "name": "Police Station, Jalamandayam Rural",
    "district": "Namakkal",
    "city": "Velur Rural",
    "state": "Tamil Nadu",
    "address": "Police Station, Jalamandayam Rural, Velur Rural, Namakkal, Tamil Nadu, 638182",
    "phone": "04268-222145",
    "emergency_phone": "100",
    "type": "Police Station",
    "open_24x7": true,
    "lat": 11.1151,
    "lng": 77.9142,
    "pincode": "638182"
  },
  {
    "id": "PS_NMK026",
    "name": "Police Station, Erumapatti Rural Sector",
    "district": "Namakkal",
    "city": "Namakkal Rural",
    "state": "Tamil Nadu",
    "address": "Police Station, Erumapatti Rural Sector, Namakkal Rural, Namakkal, Tamil Nadu, 637102",
    "phone": "04286-252146",
    "emergency_phone": "100",
    "type": "Police Station",
    "open_24x7": true,
    "lat": 11.1458,
    "lng": 78.2311,
    "pincode": "637102"
  },
  {
    "id": "PS_NMK027",
    "name": "Police Station, Kolli Hills (Semmedu)",
    "district": "Namakkal",
    "city": "Kolli Hills",
    "state": "Tamil Nadu",
    "address": "Police Station, Kolli Hills (Semmedu), Kolli Hills, Namakkal, Tamil Nadu, 637411",
    "phone": "04286-247127",
    "emergency_phone": "100",
    "type": "Police Station",
    "open_24x7": true,
    "lat": 11.2839,
    "lng": 78.3411,
    "pincode": "637411"
  },
  {
    "id": "PS_NMK028",
    "name": "District Crime Branch (DCB), Namakkal",
    "district": "Namakkal",
    "city": "Namakkal",
    "state": "Tamil Nadu",
    "address": "District Crime Branch (DCB), Namakkal, Namakkal, Tamil Nadu, 637001",
    "phone": "04286-231276",
    "emergency_phone": "100",
    "type": "Police Station",
    "open_24x7": true,
    "lat": 11.2131,
    "lng": 78.1612,
    "pincode": "637001"
  },
  {
    "id": "PS_NMK029",
    "name": "Police Station, Cyber Crime Wing",
    "district": "Namakkal",
    "city": "Namakkal",
    "state": "Tamil Nadu",
    "address": "Police Station, Cyber Crime Wing, Namakkal, Tamil Nadu, 637001",
    "phone": "04286-231999",
    "emergency_phone": "100",
    "type": "Police Station",
    "open_24x7": true,
    "lat": 11.2141,
    "lng": 78.1621,
    "pincode": "637001"
  },
  {
    "id": "PS_NMK030",
    "name": "Police Station, Valavanthi Rural",
    "district": "Namakkal",
    "city": "Mohanur Border",
    "state": "Tamil Nadu",
    "address": "Police Station, Valavanthi Rural, Mohanur Border, Namakkal, Tamil Nadu, 637015",
    "phone": "04286-253140",
    "emergency_phone": "100",
    "type": "Police Station",
    "open_24x7": true,
    "lat": 11.0542,
    "lng": 78.1458,
    "pincode": "637015"
  }
]
