[
  {
    "id": "PS_RMD001",
    "name": "Police Station, Ramanathapuram Town (B1)",
    "district": "Ramanathapuram",
    "city": "Ramanathapuram",
    "state": "Tamil Nadu",
    "address": "Police Station, Ramanathapuram Town (B1), Ramanathapuram, Tamil Nadu, 623501",
    "phone": "04567-220101",
    "emergency_phone": "100",
    "type": "Police Station",
    "open_24x7": true,
    "lat": 9.3639,
    "lng": 78.8395,
    "pincode": "623501"
  },
  {
    "id": "PS_RMD002",
    "name": "Police Station, Ramanathapuram Kenikarai",
    "district": "Ramanathapuram",
    "city": "Ramanathapuram",
    "state": "Tamil Nadu",
    "address": "Police Station, Ramanathapuram Kenikarai, Ramanathapuram, Tamil Nadu, 623501",
    "phone": "04567-221102",
    "emergency_phone": "100",
    "type": "Police Station",
    "open_24x7": true,
    "lat": 9.3712,
    "lng": 78.8415,
    "pincode": "623501"
  },
  {
    "id": "PS_RMD003",
    "name": "Police Station, Ramanathapuram Taluk",
    "district": "Ramanathapuram",
    "city": "Ramanathapuram",
    "state": "Tamil Nadu",
    "address": "Police Station, Ramanathapuram Taluk, Ramanathapuram, Tamil Nadu, 623501",
    "phone": "04567-220203",
    "emergency_phone": "100",
    "type": "Police Station",
    "open_24x7": true,
    "lat": 9.3582,
    "lng": 78.8291,
    "pincode": "623501"
  },
  {
    "id": "PS_RMD004",
    "name": "All Women Police Station, Ramanathapuram",
    "district": "Ramanathapuram",
    "city": "Ramanathapuram",
    "state": "Tamil Nadu",
    "address": "All Women Police Station, Ramanathapuram, Ramanathapuram, Tamil Nadu, 623501",
    "phone": "04567-220391",
    "emergency_phone": "100",
    "type": "Police Station",
    "open_24x7": true,
    "lat": 9.3614,
    "lng": 78.8354,
    "pincode": "623501"
  },
  {
    "id": "PS_RMD005",
    "name": "Police Station, Rameswaram Town",
    "district": "Ramanathapuram",
    "city": "Rameswaram",
    "state": "Tamil Nadu",
    "address": "Police Station, Rameswaram Town, Rameswaram, Ramanathapuram, Tamil Nadu, 623526",
    "phone": "04573-221105",
    "emergency_phone": "100",
    "type": "Police Station",
    "open_24x7": true,
    "lat": 9.2882,
    "lng": 79.3124,
    "pincode": "623526"
  },
  {
    "id": "PS_RMD006",
    "name": "Police Station, Rameswaram Taluk",
    "district": "Ramanathapuram",
    "city": "Rameswaram",
    "state": "Tamil Nadu",
    "address": "Police Station, Rameswaram Taluk, Rameswaram, Ramanathapuram, Tamil Nadu, 623526",
    "phone": "04573-221206",
    "emergency_phone": "100",
    "type": "Police Station",
    "open_24x7": true,
    "lat": 9.2814,
    "lng": 79.2985,
    "pincode": "623526"
  },
  {
    "id": "PS_RMD007",
    "name": "Police Station, Dhanushkodi Rural",
    "district": "Ramanathapuram",
    "city": "Rameswaram Sector",
    "state": "Tamil Nadu",
    "address": "Police Station, Dhanushkodi Rural, Rameswaram Sector, Ramanathapuram, Tamil Nadu, 623526",
    "phone": "04573-221407",
    "emergency_phone": "100",
    "type": "Police Station",
    "open_24x7": true,
    "lat": 9.1812,
    "lng": 79.4114,
    "pincode": "623526"
  },
  {
    "id": "PS_RMD008",
    "name": "Police Station, Thangachimadam",
    "district": "Ramanathapuram",
    "city": "Thangachimadam",
    "state": "Tamil Nadu",
    "address": "Police Station, Thangachimadam, Thangachimadam, Ramanathapuram, Tamil Nadu, 623529",
    "phone": "04573-252108",
    "emergency_phone": "100",
    "type": "Police Station",
    "open_24x7": true,
    "lat": 9.2839,
    "lng": 79.2152,
    "pincode": "623529"
  },
  {
    "id": "PS_RMD009",
    "name": "Police Station, Pamban",
    "district": "Ramanathapuram",
    "city": "Pamban",
    "state": "Tamil Nadu",
    "address": "Police Station, Pamban, Pamban, Ramanathapuram, Tamil Nadu, 623521",
    "phone": "04573-231109",
    "emergency_phone": "100",
    "type": "Police Station",
    "open_24x7": true,
    "lat": 9.2765,
    "lng": 79.1842,
    "pincode": "623521"
  },
  {
    "id": "PS_RMD010",
    "name": "All Women Police Station, Rameswaram",
    "district": "Ramanathapuram",
    "city": "Rameswaram",
    "state": "Tamil Nadu",
    "address": "All Women Police Station, Rameswaram, Rameswaram, Ramanathapuram, Tamil Nadu, 623526",
    "phone": "04573-221192",
    "emergency_phone": "100",
    "type": "Police Station",
    "open_24x7": true,
    "lat": 9.2854,
    "lng": 79.3092,
    "pincode": "623526"
  },
  {
    "id": "PS_RMD011",
    "name": "Police Station, Paramakudi Town",
    "district": "Ramanathapuram",
    "city": "Paramakudi",
    "state": "Tamil Nadu",
    "address": "Police Station, Paramakudi Town, Paramakudi, Ramanathapuram, Tamil Nadu, 623707",
    "phone": "04564-222111",
    "emergency_phone": "100",
    "type": "Police Station",
    "open_24x7": true,
    "lat": 9.5442,
    "lng": 78.5912,
    "pincode": "623707"
  },
  {
    "id": "PS_RMD012",
    "name": "Police Station, Paramakudi Taluk",
    "district": "Ramanathapuram",
    "city": "Paramakudi",
    "state": "Tamil Nadu",
    "address": "Police Station, Paramakudi Taluk, Paramakudi, Ramanathapuram, Tamil Nadu, 623707",
    "phone": "04564-223112",
    "emergency_phone": "100",
    "type": "Police Station",
    "open_24x7": true,
    "lat": 9.5384,
    "lng": 78.5839,
    "pincode": "623707"
  },
  {
    "id": "PS_RMD013",
    "name": "All Women Police Station, Paramakudi",
    "district": "Ramanathapuram",
    "city": "Paramakudi",
    "state": "Tamil Nadu",
    "address": "All Women Police Station, Paramakudi, Paramakudi, Ramanathapuram, Tamil Nadu, 623707",
    "phone": "04564-222193",
    "emergency_phone": "100",
    "type": "Police Station",
    "open_24x7": true,
    "lat": 9.5411,
    "lng": 78.5874,
    "pincode": "623707"
  },
  {
    "id": "PS_RMD014",
    "name": "Police Station, Emaneswaram",
    "district": "Ramanathapuram",
    "city": "Emaneswaram",
    "state": "Tamil Nadu",
    "address": "Police Station, Emaneswaram, Emaneswaram, Ramanathapuram, Tamil Nadu, 623701",
    "phone": "04564-224114",
    "emergency_phone": "100",
    "type": "Police Station",
    "open_24x7": true,
    "lat": 9.5512,
    "lng": 78.6121,
    "pincode": "623701"
  },
  {
    "id": "PS_RMD015",
    "name": "Police Station, Ilayangudi Border Sector",
    "district": "Ramanathapuram",
    "city": "Paramakudi Rural",
    "state": "Tamil Nadu",
    "address": "Police Station, Ilayangudi Border Sector, Paramakudi Rural, Ramanathapuram, Tamil Nadu, 623707",
    "phone": "04564-230115",
    "emergency_phone": "100",
    "type": "Police Station",
    "open_24x7": true,
    "lat": 9.6158,
    "lng": 78.6411,
    "pincode": "623707"
  },
  {
    "id": "PS_RMD016",
    "name": "Police Station, Keelakarai",
    "district": "Ramanathapuram",
    "city": "Keelakarai",
    "state": "Tamil Nadu",
    "address": "Police Station, Keelakarai, Keelakarai, Ramanathapuram, Tamil Nadu, 623517",
    "phone": "04567-241216",
    "emergency_phone": "100",
    "type": "Police Station",
    "open_24x7": true,
    "lat": 9.2312,
    "lng": 78.7824,
    "pincode": "623517"
  },
  {
    "id": "PS_RMD017",
    "name": "Police Station, Ervadi Dargah",
    "district": "Ramanathapuram",
    "city": "Ervadi",
    "state": "Tamil Nadu",
    "address": "Police Station, Ervadi Dargah, Ervadi, Ramanathapuram, Tamil Nadu, 623515",
    "phone": "04567-244117",
    "emergency_phone": "100",
    "type": "Police Station",
    "open_24x7": true,
    "lat": 9.2152,
    "lng": 78.7264,
    "pincode": "623515"
  },
  {
    "id": "PS_RMD018",
    "name": "Police Station, Mandapam",
    "district": "Ramanathapuram",
    "city": "Mandapam",
    "state": "Tamil Nadu",
    "address": "Police Station, Mandapam, Mandapam, Ramanathapuram, Tamil Nadu, 623518",
    "phone": "04573-241118",
    "emergency_phone": "100",
    "type": "Police Station",
    "open_24x7": true,
    "lat": 9.2745,
    "lng": 79.1245,
    "pincode": "623518"
  },
  {
    "id": "PS_RMD019",
    "name": "Police Station, Uchipuli",
    "district": "Ramanathapuram",
    "city": "Uchipuli",
    "state": "Tamil Nadu",
    "address": "Police Station, Uchipuli, Uchipuli, Ramanathapuram, Tamil Nadu, 623534",
    "phone": "04573-245119",
    "emergency_phone": "100",
    "type": "Police Station",
    "open_24x7": true,
    "lat": 9.3119,
    "lng": 79.0654,
    "pincode": "623534"
  },
  {
    "id": "PS_RMD020",
    "name": "Police Station, Chathirakudi",
    "district": "Ramanathapuram",
    "city": "Chathirakudi",
    "state": "Tamil Nadu",
    "address": "Police Station, Chathirakudi, Chathirakudi, Ramanathapuram, Tamil Nadu, 623704",
    "phone": "04564-254120",
    "emergency_phone": "100",
    "type": "Police Station",
    "open_24x7": true,
    "lat": 9.4851,
    "lng": 78.6712,
    "pincode": "623704"
  },
  {
    "id": "PS_RMD021",
    "name": "Police Station, Mudukulathur",
    "district": "Ramanathapuram",
    "city": "Mudukulathur",
    "state": "Tamil Nadu",
    "address": "Police Station, Mudukulathur, Mudukulathur, Ramanathapuram, Tamil Nadu, 623704",
    "phone": "04576-222121",
    "emergency_phone": "100",
    "type": "Police Station",
    "open_24x7": true,
    "lat": 9.3411,
    "lng": 78.5114,
    "pincode": "623704"
  },
  {
    "id": "PS_RMD022",
    "name": "Police Station, Kamuthi",
    "district": "Ramanathapuram",
    "city": "Kamuthi",
    "state": "Tamil Nadu",
    "address": "Police Station, Kamuthi, Kamuthi, Ramanathapuram, Tamil Nadu, 623603",
    "phone": "04576-232122",
    "emergency_phone": "100",
    "type": "Police Station",
    "open_24x7": true,
    "lat": 9.4102,
    "lng": 78.3694,
    "pincode": "623603"
  },
  {
    "id": "PS_RMD023",
    "name": "Police Station, Kadaladi",
    "district": "Ramanathapuram",
    "city": "Kadaladi",
    "state": "Tamil Nadu",
    "address": "Police Station, Kadaladi, Kadaladi, Ramanathapuram, Tamil Nadu, 623703",
    "phone": "04576-242123",
    "emergency_phone": "100",
    "type": "Police Station",
    "open_24x7": true,
    "lat": 9.2452,
    "lng": 78.4589,
    "pincode": "623703"
  },
  {
    "id": "PS_RMD024",
    "name": "Police Station, Sayalgudi",
    "district": "Ramanathapuram",
    "city": "Sayalgudi",
    "state": "Tamil Nadu",
    "address": "Police Station, Sayalgudi, Sayalgudi, Ramanathapuram, Tamil Nadu, 623120",
    "phone": "04576-246124",
    "emergency_phone": "100",
    "type": "Police Station",
    "open_24x7": true,
    "lat": 9.1958,
    "lng": 78.3411,
    "pincode": "623120"
  },
  {
    "id": "PS_RMD025",
    "name": "Police Station, Abiramam",
    "district": "Ramanathapuram",
    "city": "Abiramam",
    "state": "Tamil Nadu",
    "address": "Police Station, Abiramam, Abiramam, Ramanathapuram, Tamil Nadu, 623601",
    "phone": "04576-234125",
    "emergency_phone": "100",
    "type": "Police Station",
    "open_24x7": true,
    "lat": 9.4691,
    "lng": 78.4112,
    "pincode": "623601"
  },
  {
    "id": "PS_RMD026",
    "name": "Police Station, Thiruvadanai",
    "district": "Ramanathapuram",
    "city": "Thiruvadanai",
    "state": "Tamil Nadu",
    "address": "Police Station, Thiruvadanai, Thiruvadanai, Ramanathapuram, Tamil Nadu, 623407",
    "phone": "04561-254126",
    "emergency_phone": "100",
    "type": "Police Station",
    "open_24x7": true,
    "lat": 9.7824,
    "lng": 78.9114,
    "pincode": "623407"
  },
  {
    "id": "PS_RMD027",
    "name": "Police Station, R.S. Mangalam",
    "district": "Ramanathapuram",
    "city": "R.S. Mangalam",
    "state": "Tamil Nadu",
    "address": "Police Station, R.S. Mangalam, R.S. Mangalam, Ramanathapuram, Tamil Nadu, 623525",
    "phone": "04561-244127",
    "emergency_phone": "100",
    "type": "Police Station",
    "open_24x7": true,
    "lat": 9.6121,
    "lng": 78.7121,
    "pincode": "623525"
  },
  {
    "id": "PS_RMD028",
    "name": "Police Station, Thirupalaikudi",
    "district": "Ramanathapuram",
    "city": "Thirupalaikudi",
    "state": "Tamil Nadu",
    "address": "Police Station, Thirupalaikudi, Thirupalaikudi, Ramanathapuram, Tamil Nadu, 623531",
    "phone": "04561-242128",
    "emergency_phone": "100",
    "type": "Police Station",
    "open_24x7": true,
    "lat": 9.5114,
    "lng": 78.9558,
    "pincode": "623531"
  },
  {
    "id": "PS_RMD029",
    "name": "Police Station, Nainarkoil",
    "district": "Ramanathapuram",
    "city": "Nainarkoil",
    "state": "Tamil Nadu",
    "address": "Police Station, Nainarkoil, Nainarkoil, Ramanathapuram, Tamil Nadu, 623705",
    "phone": "04567-252129",
    "emergency_phone": "100",
    "type": "Police Station",
    "open_24x7": true,
    "lat": 9.4418,
    "lng": 78.7661,
    "pincode": "623705"
  },
  {
    "id": "PS_RMD030",
    "name": "Police Station, Devipattinam",
    "district": "Ramanathapuram",
    "city": "Devipattinam",
    "state": "Tamil Nadu",
    "address": "Police Station, Devipattinam, Devipattinam, Ramanathapuram, Tamil Nadu, 623514",
    "phone": "04567-254130",
    "emergency_phone": "100",
    "type": "Police Station",
    "open_24x7": true,
    "lat": 9.4542,
    "lng": 78.8912,
    "pincode": "623514"
  },
  {
    "id": "PS_RMD031",
    "name": "Marine Police Station, Mandapam Coastal Security",
    "district": "Ramanathapuram",
    "city": "Mandapam",
    "state": "Tamil Nadu",
    "address": "Marine Police Station, Mandapam Coastal Security, Mandapam, Ramanathapuram, Tamil Nadu, 623518",
    "phone": "04573-241551",
    "emergency_phone": "100",
    "type": "Police Station",
    "open_24x7": true,
    "lat": 9.2711,
    "lng": 79.1185,
    "pincode": "623518"
  },
  {
    "id": "PS_RMD032",
    "name": "Marine Police Station, Thangachimadam Coastal",
    "district": "Ramanathapuram",
    "city": "Rameswaram Sector",
    "state": "Tamil Nadu",
    "address": "Marine Police Station, Thangachimadam Coastal, Rameswaram Sector, Ramanathapuram, Tamil Nadu, 623529",
    "phone": "04573-252552",
    "emergency_phone": "100",
    "type": "Police Station",
    "open_24x7": true,
    "lat": 9.2811,
    "lng": 79.2112,
    "pincode": "623529"
  },
  {
    "id": "PS_RMD033",
    "name": "Marine Police Station, Keelakarai Coastal",
    "district": "Ramanathapuram",
    "city": "Keelakarai",
    "state": "Tamil Nadu",
    "address": "Marine Police Station, Keelakarai Coastal, Keelakarai, Ramanathapuram, Tamil Nadu, 623517",
    "phone": "04567-241553",
    "emergency_phone": "100",
    "type": "Police Station",
    "open_24x7": true,
    "lat": 9.2285,
    "lng": 78.7792,
    "pincode": "623517"
  },
  {
    "id": "PS_RMD034",
    "name": "District Crime Branch (DCB), Ramanathapuram",
    "district": "Ramanathapuram",
    "city": "Ramanathapuram",
    "state": "Tamil Nadu",
    "address": "District Crime Branch (DCB), Ramanathapuram, Ramanathapuram, Tamil Nadu, 623501",
    "phone": "04567-220276",
    "emergency_phone": "100",
    "type": "Police Station",
    "open_24x7": true,
    "lat": 9.3621,
    "lng": 78.8378,
    "pincode": "623501"
  },
  {
    "id": "PS_RMD035",
    "name": "Police Station, Cyber Crime Wing",
    "district": "Ramanathapuram",
    "city": "Ramanathapuram",
    "state": "Tamil Nadu",
    "address": "Police Station, Cyber Crime Wing, Ramanathapuram, Tamil Nadu, 623501",
    "phone": "04567-220999",
    "emergency_phone": "100",
    "type": "Police Station",
    "open_24x7": true,
    "lat": 9.3625,
    "lng": 78.8384,
    "pincode": "623501"
  }
]
