[
  {
    "id": "PS_TPR001",
    "name": "Police Station, Tirupathur Town",
    "district": "Tirupathur",
    "city": "Tirupathur",
    "state": "Tamil Nadu",
    "address": "Police Station, Tirupathur Town, Tirupathur, Tamil Nadu, 635601",
    "phone": "04179-222101",
    "emergency_phone": "100",
    "type": "Police Station",
    "open_24x7": true,
    "lat": 12.4934,
    "lng": 78.5614,
    "pincode": "635601"
  },
  {
    "id": "PS_TPR002",
    "name": "Police Station, Tirupathur Taluk",
    "district": "Tirupathur",
    "city": "Tirupathur",
    "state": "Tamil Nadu",
    "address": "Police Station, Tirupathur Taluk, Tirupathur, Tamil Nadu, 635601",
    "phone": "04179-223102",
    "emergency_phone": "100",
    "type": "Police Station",
    "open_24x7": true,
    "lat": 12.4892,
    "lng": 78.5558,
    "pincode": "635601"
  },
  {
    "id": "PS_TPR003",
    "name": "All Women Police Station, Tirupathur",
    "district": "Tirupathur",
    "city": "Tirupathur",
    "state": "Tamil Nadu",
    "address": "All Women Police Station, Tirupathur, Tirupathur, Tamil Nadu, 635601",
    "phone": "04179-222191",
    "emergency_phone": "100",
    "type": "Police Station",
    "open_24x7": true,
    "lat": 12.4912,
    "lng": 78.5592,
    "pincode": "635601"
  },
  {
    "id": "PS_TPR004",
    "name": "Police Station, Jolarpet",
    "district": "Tirupathur",
    "city": "Jolarpet",
    "state": "Tamil Nadu",
    "address": "Police Station, Jolarpet, Jolarpet, Tirupathur, Tamil Nadu, 635851",
    "phone": "04179-242104",
    "emergency_phone": "100",
    "type": "Police Station",
    "open_24x7": true,
    "lat": 12.5694,
    "lng": 78.5839,
    "pincode": "635851"
  },
  {
    "id": "PS_TPR005",
    "name": "Police Station, Yelagiri Hills (Hill Station)",
    "district": "Tirupathur",
    "city": "Yelagiri Hills",
    "state": "Tamil Nadu",
    "address": "Police Station, Yelagiri Hills (Hill Station), Yelagiri Hills, Tirupathur, Tamil Nadu, 635853",
    "phone": "04179-245105",
    "emergency_phone": "100",
    "type": "Police Station",
    "open_24x7": true,
    "lat": 12.5839,
    "lng": 78.6411,
    "pincode": "635853"
  },
  {
    "id": "PS_TPR006",
    "name": "Police Station, Kandili",
    "district": "Tirupathur",
    "city": "Kandili",
    "state": "Tamil Nadu",
    "address": "Police Station, Kandili, Kandili, Tirupathur, Tamil Nadu, 635901",
    "phone": "04179-246106",
    "emergency_phone": "100",
    "type": "Police Station",
    "open_24x7": true,
    "lat": 12.4114,
    "lng": 78.4851,
    "pincode": "635901"
  },
  {
    "id": "PS_TPR007",
    "name": "Police Station, Natrampalli",
    "district": "Tirupathur",
    "city": "Natrampalli",
    "state": "Tamil Nadu",
    "address": "Police Station, Natrampalli, Natrampalli, Tirupathur, Tamil Nadu, 635852",
    "phone": "04179-244107",
    "emergency_phone": "100",
    "type": "Police Station",
    "open_24x7": true,
    "lat": 12.5642,
    "lng": 78.4112,
    "pincode": "635852"
  },
  {
    "id": "PS_TPR008",
    "name": "Police Station, Vaniyambadi Town",
    "district": "Tirupathur",
    "city": "Vaniyambadi",
    "state": "Tamil Nadu",
    "address": "Police Station, Vaniyambadi Town, Vaniyambadi, Tirupathur, Tamil Nadu, 635751",
    "phone": "04174-232108",
    "emergency_phone": "100",
    "type": "Police Station",
    "open_24x7": true,
    "lat": 12.6914,
    "lng": 78.6214,
    "pincode": "635751"
  },
  {
    "id": "PS_TPR009",
    "name": "Police Station, Vaniyambadi Taluk",
    "district": "Tirupathur",
    "city": "Vaniyambadi",
    "state": "Tamil Nadu",
    "address": "Police Station, Vaniyambadi Taluk, Vaniyambadi, Tirupathur, Tamil Nadu, 635751",
    "phone": "04174-233109",
    "emergency_phone": "100",
    "type": "Police Station",
    "open_24x7": true,
    "lat": 12.6842,
    "lng": 78.6121,
    "pincode": "635751"
  },
  {
    "id": "PS_TPR010",
    "name": "All Women Police Station, Vaniyambadi",
    "district": "Tirupathur",
    "city": "Vaniyambadi",
    "state": "Tamil Nadu",
    "address": "All Women Police Station, Vaniyambadi, Vaniyambadi, Tirupathur, Tamil Nadu, 635751",
    "phone": "04174-232192",
    "emergency_phone": "100",
    "type": "Police Station",
    "open_24x7": true,
    "lat": 12.6885,
    "lng": 78.6158,
    "pincode": "635751"
  },
  {
    "id": "PS_TPR011",
    "name": "Police Station, Ambur Town",
    "district": "Tirupathur",
    "city": "Ambur",
    "state": "Tamil Nadu",
    "address": "Police Station, Ambur Town, Ambur, Tirupathur, Tamil Nadu, 635802",
    "phone": "04174-242111",
    "emergency_phone": "100",
    "type": "Police Station",
    "open_24x7": true,
    "lat": 12.7912,
    "lng": 78.7121,
    "pincode": "635802"
  },
  {
    "id": "PS_TPR012",
    "name": "Police Station, Ambur Taluk",
    "district": "Tirupathur",
    "city": "Ambur",
    "state": "Tamil Nadu",
    "address": "Police Station, Ambur Taluk, Ambur, Tirupathur, Tamil Nadu, 635802",
    "phone": "04174-243112",
    "emergency_phone": "100",
    "type": "Police Station",
    "open_24x7": true,
    "lat": 12.7854,
    "lng": 78.6958,
    "pincode": "635802"
  },
  {
    "id": "PS_TPR013",
    "name": "Police Station, Alangayam",
    "district": "Tirupathur",
    "city": "Alangayam",
    "state": "Tamil Nadu",
    "address": "Police Station, Alangayam, Alangayam, Tirupathur, Tamil Nadu, 635701",
    "phone": "04174-265113",
    "emergency_phone": "100",
    "type": "Police Station",
    "open_24x7": true,
    "lat": 12.6121,
    "lng": 78.7458,
    "pincode": "635701"
  },
  {
    "id": "PS_TPR014",
    "name": "Police Station, Khaderpet",
    "district": "Tirupathur",
    "city": "Vaniyambadi Sector",
    "state": "Tamil Nadu",
    "address": "Police Station, Khaderpet, Vaniyambadi Sector, Tirupathur, Tamil Nadu, 635751",
    "phone": "04174-234114",
    "emergency_phone": "100",
    "type": "Police Station",
    "open_24x7": true,
    "lat": 12.6931,
    "lng": 78.6254,
    "pincode": "635751"
  },
  {
    "id": "PS_TPR015",
    "name": "Police Station, Umarabad",
    "district": "Tirupathur",
    "city": "Umarabad",
    "state": "Tamil Nadu",
    "address": "Police Station, Umarabad, Umarabad, Tirupathur, Tamil Nadu, 635808",
    "phone": "04174-248115",
    "emergency_phone": "100",
    "type": "Police Station",
    "open_24x7": true,
    "lat": 12.7114,
    "lng": 78.7824,
    "pincode": "635808"
  },
  {
    "id": "PS_TPR016",
    "name": "Prohibition Enforcement Wing (PEW), Tirupathur",
    "district": "Tirupathur",
    "city": "Tirupathur",
    "state": "Tamil Nadu",
    "address": "Prohibition Enforcement Wing (PEW), Tirupathur, Tirupathur, Tamil Nadu, 635601",
    "phone": "04179-222551",
    "emergency_phone": "100",
    "type": "Police Station",
    "open_24x7": true,
    "lat": 12.4941,
    "lng": 78.5625,
    "pincode": "635601"
  },
  {
    "id": "PS_TPR017",
    "name": "District Crime Branch (DCB), Tirupathur",
    "district": "Tirupathur",
    "city": "Tirupathur",
    "state": "Tamil Nadu",
    "address": "District Crime Branch (DCB), Tirupathur, Tirupathur, Tamil Nadu, 635601",
    "phone": "04179-222276",
    "emergency_phone": "100",
    "type": "Police Station",
    "open_24x7": true,
    "lat": 12.4905,
    "lng": 78.5573,
    "pincode": "635601"
  }
]
