[
  {
    "id": "PS_TLR001",
    "name": "Police Station, Tiruvallur Town",
    "district": "Tiruvallur",
    "city": "Tiruvallur",
    "state": "Tamil Nadu",
    "address": "Police Station, Tiruvallur Town, Tiruvallur, Tamil Nadu, 602001",
    "phone": "044-27660101",
    "emergency_phone": "100",
    "type": "Police Station",
    "open_24x7": true,
    "lat": 13.1422,
    "lng": 79.9114,
    "pincode": "602001"
  },
  {
    "id": "PS_TLR002",
    "name": "Police Station, Tiruvallur Taluk",
    "district": "Tiruvallur",
    "city": "Tiruvallur",
    "state": "Tamil Nadu",
    "address": "Police Station, Tiruvallur Taluk, Tiruvallur, Tamil Nadu, 602001",
    "phone": "044-27661102",
    "emergency_phone": "100",
    "type": "Police Station",
    "open_24x7": true,
    "lat": 13.1384,
    "lng": 79.9042,
    "pincode": "602001"
  },
  {
    "id": "PS_TLR003",
    "name": "All Women Police Station, Tiruvallur",
    "district": "Tiruvallur",
    "city": "Tiruvallur",
    "state": "Tamil Nadu",
    "address": "All Women Police Station, Tiruvallur, Tiruvallur, Tamil Nadu, 602001",
    "phone": "044-27662191",
    "emergency_phone": "100",
    "type": "Police Station",
    "open_24x7": true,
    "lat": 13.1405,
    "lng": 79.9089,
    "pincode": "602001"
  },
  {
    "id": "PS_TLR004",
    "name": "Police Station, Tiruttani Town",
    "district": "Tiruvallur",
    "city": "Tiruttani",
    "state": "Tamil Nadu",
    "address": "Police Station, Tiruttani Town, Tiruttani, Tiruvallur, Tamil Nadu, 631209",
    "phone": "04118-222104",
    "emergency_phone": "100",
    "type": "Police Station",
    "open_24x7": true,
    "lat": 13.1812,
    "lng": 79.6214,
    "pincode": "631209"
  },
  {
    "id": "PS_TLR005",
    "name": "Police Station, Tiruttani Taluk",
    "district": "Tiruvallur",
    "city": "Tiruttani",
    "state": "Tamil Nadu",
    "address": "Police Station, Tiruttani Taluk, Tiruttani, Tiruvallur, Tamil Nadu, 631209",
    "phone": "04118-223105",
    "emergency_phone": "100",
    "type": "Police Station",
    "open_24x7": true,
    "lat": 13.1754,
    "lng": 79.6158,
    "pincode": "631209"
  },
  {
    "id": "PS_TLR006",
    "name": "All Women Police Station, Tiruttani",
    "district": "Tiruvallur",
    "city": "Tiruttani",
    "state": "Tamil Nadu",
    "address": "All Women Police Station, Tiruttani, Tiruttani, Tiruvallur, Tamil Nadu, 631209",
    "phone": "04118-222192",
    "emergency_phone": "100",
    "type": "Police Station",
    "open_24x7": true,
    "lat": 13.1784,
    "lng": 79.6192,
    "pincode": "631209"
  },
  {
    "id": "PS_TLR007",
    "name": "Police Station, Gummidipoondi",
    "district": "Tiruvallur",
    "city": "Gummidipoondi",
    "state": "Tamil Nadu",
    "address": "Police Station, Gummidipoondi, Gummidipoondi, Tiruvallur, Tamil Nadu, 601201",
    "phone": "044-27922107",
    "emergency_phone": "100",
    "type": "Police Station",
    "open_24x7": true,
    "lat": 13.4114,
    "lng": 80.1185,
    "pincode": "601201"
  },
  {
    "id": "PS_TLR008",
    "name": "Police Station, Gummidipoondi SIPCOT",
    "district": "Tiruvallur",
    "city": "Gummidipoondi",
    "state": "Tamil Nadu",
    "address": "Police Station, Gummidipoondi SIPCOT, Gummidipoondi, Tiruvallur, Tamil Nadu, 601201",
    "phone": "044-27925108",
    "emergency_phone": "100",
    "type": "Police Station",
    "open_24x7": true,
    "lat": 13.4254,
    "lng": 80.1345,
    "pincode": "601201"
  },
  {
    "id": "PS_TLR009",
    "name": "Police Station, Ponneri",
    "district": "Tiruvallur",
    "city": "Ponneri",
    "state": "Tamil Nadu",
    "address": "Police Station, Ponneri, Ponneri, Tiruvallur, Tamil Nadu, 601204",
    "phone": "044-27972109",
    "emergency_phone": "100",
    "type": "Police Station",
    "open_24x7": true,
    "lat": 13.3245,
    "lng": 80.1958,
    "pincode": "601204"
  },
  {
    "id": "PS_TLR010",
    "name": "All Women Police Station, Ponneri",
    "district": "Tiruvallur",
    "city": "Ponneri",
    "state": "Tamil Nadu",
    "address": "All Women Police Station, Ponneri, Ponneri, Tiruvallur, Tamil Nadu, 601204",
    "phone": "044-27971193",
    "emergency_phone": "100",
    "type": "Police Station",
    "open_24x7": true,
    "lat": 13.3211,
    "lng": 80.1912,
    "pincode": "601204"
  },
  {
    "id": "PS_TLR011",
    "name": "Police Station, Uthukottai",
    "district": "Tiruvallur",
    "city": "Uthukottai",
    "state": "Tamil Nadu",
    "address": "Police Station, Uthukottai, Uthukottai, Tiruvallur, Tamil Nadu, 602026",
    "phone": "044-27630111",
    "emergency_phone": "100",
    "type": "Police Station",
    "open_24x7": true,
    "lat": 13.3411,
    "lng": 79.8925,
    "pincode": "602026"
  },
  {
    "id": "PS_TLR012",
    "name": "Police Station, Minjur",
    "district": "Tiruvallur",
    "city": "Minjur",
    "state": "Tamil Nadu",
    "address": "Police Station, Minjur, Minjur, Tiruvallur, Tamil Nadu, 601203",
    "phone": "044-27934112",
    "emergency_phone": "100",
    "type": "Police Station",
    "open_24x7": true,
    "lat": 13.2745,
    "lng": 80.2614,
    "pincode": "601203"
  },
  {
    "id": "PS_TLR013",
    "name": "Police Station, Sholavaram",
    "district": "Tiruvallur",
    "city": "Sholavaram",
    "state": "Tamil Nadu",
    "address": "Police Station, Sholavaram, Sholavaram, Tiruvallur, Tamil Nadu, 600067",
    "phone": "044-26330113",
    "emergency_phone": "100",
    "type": "Police Station",
    "open_24x7": true,
    "lat": 13.2312,
    "lng": 80.1452,
    "pincode": "600067"
  },
  {
    "id": "PS_TLR014",
    "name": "Police Station, Arambakkam Border",
    "district": "Tiruvallur",
    "city": "Gummidipoondi Rural",
    "state": "Tamil Nadu",
    "address": "Police Station, Arambakkam Border, Gummidipoondi Rural, Tiruvallur, Tamil Nadu, 601201",
    "phone": "044-27944114",
    "emergency_phone": "100",
    "type": "Police Station",
    "open_24x7": true,
    "lat": 13.5114,
    "lng": 80.1114,
    "pincode": "601201"
  },
  {
    "id": "PS_TLR015",
    "name": "Police Station, Pathapalayam",
    "district": "Tiruvallur",
    "city": "Gummidipoondi Sub-Sector",
    "state": "Tamil Nadu",
    "address": "Police Station, Pathapalayam, Gummidipoondi Sub-Sector, Tiruvallur, Tamil Nadu, 601201",
    "phone": "044-27926115",
    "emergency_phone": "100",
    "type": "Police Station",
    "open_24x7": true,
    "lat": 13.4418,
    "lng": 80.0854,
    "pincode": "601201"
  },
  {
    "id": "PS_TLR016",
    "name": "Police Station, Kavarapettai",
    "district": "Tiruvallur",
    "city": "Kavarapettai",
    "state": "Tamil Nadu",
    "address": "Police Station, Kavarapettai, Kavarapettai, Tiruvallur, Tamil Nadu, 601206",
    "phone": "044-27924116",
    "emergency_phone": "100",
    "type": "Police Station",
    "open_24x7": true,
    "lat": 13.3654,
    "lng": 80.1064,
    "pincode": "601206"
  },
  {
    "id": "PS_TLR017",
    "name": "Police Station, Katpadi (Tiruvallur Limit)",
    "district": "Tiruvallur",
    "city": "Tiruvallur Sector",
    "state": "Tamil Nadu",
    "address": "Police Station, Katpadi (Tiruvallur Limit), Tiruvallur Sector, Tiruvallur, Tamil Nadu, 602001",
    "phone": "044-27663117",
    "emergency_phone": "100",
    "type": "Police Station",
    "open_24x7": true,
    "lat": 13.1114,
    "lng": 79.8542,
    "pincode": "602001"
  },
  {
    "id": "PS_TLR018",
    "name": "Police Station, Mappedu",
    "district": "Tiruvallur",
    "city": "Mappedu",
    "state": "Tamil Nadu",
    "address": "Police Station, Mappedu, Mappedu, Tiruvallur, Tamil Nadu, 631402",
    "phone": "044-27658118",
    "emergency_phone": "100",
    "type": "Police Station",
    "open_24x7": true,
    "lat": 13.0121,
    "lng": 79.9114,
    "pincode": "631402"
  },
  {
    "id": "PS_TLR019",
    "name": "Police Station, Kadambathur",
    "district": "Tiruvallur",
    "city": "Kadambathur",
    "state": "Tamil Nadu",
    "address": "Police Station, Kadambathur, Kadambathur, Tiruvallur, Tamil Nadu, 631203",
    "phone": "044-27645119",
    "emergency_phone": "100",
    "type": "Police Station",
    "open_24x7": true,
    "lat": 13.0842,
    "lng": 79.8422,
    "pincode": "631203"
  },
  {
    "id": "PS_TLR020",
    "name": "Police Station, Sevvapet",
    "district": "Tiruvallur",
    "city": "Sevvapet",
    "state": "Tamil Nadu",
    "address": "Police Station, Sevvapet, Sevvapet, Tiruvallur, Tamil Nadu, 602025",
    "phone": "044-27620120",
    "emergency_phone": "100",
    "type": "Police Station",
    "open_24x7": true,
    "lat": 13.1185,
    "lng": 79.9691,
    "pincode": "602025"
  },
  {
    "id": "PS_TLR021",
    "name": "Police Station, Pullarambakkam",
    "district": "Tiruvallur",
    "city": "Pullarambakkam",
    "state": "Tamil Nadu",
    "address": "Police Station, Pullarambakkam, Pullarambakkam, Tiruvallur, Tamil Nadu, 602023",
    "phone": "044-27640121",
    "emergency_phone": "100",
    "type": "Police Station",
    "open_24x7": true,
    "lat": 13.1694,
    "lng": 79.8683,
    "pincode": "602023"
  },
  {
    "id": "PS_TLR022",
    "name": "Police Station, Vengal",
    "district": "Tiruvallur",
    "city": "Vengal",
    "state": "Tamil Nadu",
    "address": "Police Station, Vengal, Vengal, Tiruvallur, Tamil Nadu, 601103",
    "phone": "044-27627122",
    "emergency_phone": "100",
    "type": "Police Station",
    "open_24x7": true,
    "lat": 13.2152,
    "lng": 79.9558,
    "pincode": "601103"
  },
  {
    "id": "PS_TLR023",
    "name": "Police Station, Periyapalayam",
    "district": "Tiruvallur",
    "city": "Periyapalayam",
    "state": "Tamil Nadu",
    "address": "Police Station, Periyapalayam, Periyapalayam, Tiruvallur, Tamil Nadu, 601102",
    "phone": "044-27637123",
    "emergency_phone": "100",
    "type": "Police Station",
    "open_24x7": true,
    "lat": 13.2839,
    "lng": 79.9312,
    "pincode": "601102"
  },
  {
    "id": "PS_TLR024",
    "name": "Police Station, Penalurpet",
    "district": "Tiruvallur",
    "city": "Penalurpet",
    "state": "Tamil Nadu",
    "address": "Police Station, Penalurpet, Penalurpet, Tiruvallur, Tamil Nadu, 602022",
    "phone": "044-27634124",
    "emergency_phone": "100",
    "type": "Police Station",
    "open_24x7": true,
    "lat": 13.3119,
    "lng": 79.7661,
    "pincode": "602022"
  },
  {
    "id": "PS_TLR025",
    "name": "Police Station, Podaturpet",
    "district": "Tiruvallur",
    "city": "Podaturpet",
    "state": "Tamil Nadu",
    "address": "Police Station, Podaturpet, Podaturpet, Tiruvallur, Tamil Nadu, 631208",
    "phone": "04118-244125",
    "emergency_phone": "100",
    "type": "Police Station",
    "open_24x7": true,
    "lat": 13.2225,
    "lng": 79.4839,
    "pincode": "631208"
  },
  {
    "id": "PS_TLR026",
    "name": "Police Station, Pallipattu",
    "district": "Tiruvallur",
    "city": "Pallipattu",
    "state": "Tamil Nadu",
    "address": "Police Station, Pallipattu, Pallipattu, Tiruvallur, Tamil Nadu, 631207",
    "phone": "04118-242126",
    "emergency_phone": "100",
    "type": "Police Station",
    "open_24x7": true,
    "lat": 13.3411,
    "lng": 79.4412,
    "pincode": "631207"
  },
  {
    "id": "PS_TLR027",
    "name": "Police Station, R.K. Pet",
    "district": "Tiruvallur",
    "city": "R.K. Pet",
    "state": "Tamil Nadu",
    "address": "Police Station, R.K. Pet, R.K. Pet, Tiruvallur, Tamil Nadu, 631303",
    "phone": "04118-252127",
    "emergency_phone": "100",
    "type": "Police Station",
    "open_24x7": true,
    "lat": 13.1958,
    "lng": 79.4114,
    "pincode": "631303"
  },
  {
    "id": "PS_TLR028",
    "name": "Police Station, Kanakammachatram",
    "district": "Tiruvallur",
    "city": "Kanakammachatram",
    "state": "Tamil Nadu",
    "address": "Police Station, Kanakammachatram, Kanakammachatram, Tiruvallur, Tamil Nadu, 631204",
    "phone": "04118-274128",
    "emergency_phone": "100",
    "type": "Police Station",
    "open_24x7": true,
    "lat": 13.1114,
    "lng": 79.5412,
    "pincode": "631204"
  },
  {
    "id": "PS_TLR029",
    "name": "Police Station, Sunkuvarchatram Border",
    "district": "Tiruvallur",
    "city": "Tiruvallur South Border",
    "state": "Tamil Nadu",
    "address": "Police Station, Sunkuvarchatram Border, Tiruvallur South Border, Tiruvallur, Tamil Nadu, 602106",
    "phone": "044-27165140",
    "emergency_phone": "100",
    "type": "Police Station",
    "open_24x7": true,
    "lat": 12.9411,
    "lng": 79.8422,
    "pincode": "602106"
  },
  {
    "id": "PS_TLR030",
    "name": "Police Station, Jalamandayam Sub-Sector",
    "district": "Tiruvallur",
    "city": "Ponneri Rural",
    "state": "Tamil Nadu",
    "address": "Police Station, Jalamandayam Sub-Sector, Ponneri Rural, Tiruvallur, Tamil Nadu, 601204",
    "phone": "044-27972145",
    "emergency_phone": "100",
    "type": "Police Station",
    "open_24x7": true,
    "lat": 13.3534,
    "lng": 80.2114,
    "pincode": "601204"
  },
  {
    "id": "PS_TLR031",
    "name": "Police Station, Pazhaverkadu (Pulicat Coastal Security)",
    "district": "Tiruvallur",
    "city": "Pulicat",
    "state": "Tamil Nadu",
    "address": "Police Station, Pazhaverkadu (Pulicat Coastal Security), Pulicat, Tiruvallur, Tamil Nadu, 601205",
    "phone": "044-27976131",
    "emergency_phone": "100",
    "type": "Police Station",
    "open_24x7": true,
    "lat": 13.4152,
    "lng": 80.3119,
    "pincode": "601205"
  },
  {
    "id": "PS_TLR032",
    "name": "Police Station, Ennore Port Coastal Wing",
    "district": "Tiruvallur",
    "city": "Ponneri Sector",
    "state": "Tamil Nadu",
    "address": "Police Station, Ennore Port Coastal Wing, Ponneri Sector, Tiruvallur, Tamil Nadu, 601204",
    "phone": "044-27974132",
    "emergency_phone": "100",
    "type": "Police Station",
    "open_24x7": true,
    "lat": 13.2514,
    "lng": 80.3411,
    "pincode": "601204"
  },
  {
    "id": "PS_TLR033",
    "name": "Prohibition Enforcement Wing (PEW), Tiruvallur",
    "district": "Tiruvallur",
    "city": "Tiruvallur",
    "state": "Tamil Nadu",
    "address": "Prohibition Enforcement Wing (PEW), Tiruvallur, Tiruvallur, Tamil Nadu, 602001",
    "phone": "044-27660551",
    "emergency_phone": "100",
    "type": "Police Station",
    "open_24x7": true,
    "lat": 13.1431,
    "lng": 79.9125,
    "pincode": "602001"
  },
  {
    "id": "PS_TLR034",
    "name": "Prohibition Enforcement Wing (PEW), Tiruttani",
    "district": "Tiruvallur",
    "city": "Tiruttani",
    "state": "Tamil Nadu",
    "address": "Prohibition Enforcement Wing (PEW), Tiruttani, Tiruttani, Tiruvallur, Tamil Nadu, 631209",
    "phone": "04118-222552",
    "emergency_phone": "100",
    "type": "Police Station",
    "open_24x7": true,
    "lat": 13.1825,
    "lng": 79.6225,
    "pincode": "631209"
  },
  {
    "id": "PS_TLR035",
    "name": "District Crime Branch (DCB), Tiruvallur Rural",
    "district": "Tiruvallur",
    "city": "Tiruvallur",
    "state": "Tamil Nadu",
    "address": "District Crime Branch (DCB), Tiruvallur Rural, Tiruvallur, Tamil Nadu, 602001",
    "phone": "044-27660276",
    "emergency_phone": "100",
    "type": "Police Station",
    "open_24x7": true,
    "lat": 13.1392,
    "lng": 79.9072,
    "pincode": "602001"
  },
  {
    "id": "PS_TLR036",
    "name": "Police Station, Cyber Crime Wing",
    "district": "Tiruvallur",
    "city": "Tiruvallur",
    "state": "Tamil Nadu",
    "address": "Police Station, Cyber Crime Wing, Tiruvallur, Tamil Nadu, 602001",
    "phone": "044-27660999",
    "emergency_phone": "100",
    "type": "Police Station",
    "open_24x7": true,
    "lat": 13.1401,
    "lng": 79.9083,
    "pincode": "602001"
  },
  {
    "id": "PS_TLR037",
    "name": "Police Station, Ponneri Rural Sub-Sector",
    "district": "Tiruvallur",
    "city": "Ponneri Sector",
    "state": "Tamil Nadu",
    "address": "Police Station, Ponneri Rural Sub-Sector, Ponneri Sector, Tiruvallur, Tamil Nadu, 601204",
    "phone": "044-27972163",
    "emergency_phone": "100",
    "type": "Police Station",
    "open_24x7": true,
    "lat": 13.3114,
    "lng": 80.1854,
    "pincode": "601204"
  },
  {
    "id": "PS_TLR038",
    "name": "Police Station, Tiruttani Rural Sub-Sector",
    "district": "Tiruvallur",
    "city": "Tiruttani Sector",
    "state": "Tamil Nadu",
    "address": "Police Station, Tiruttani Rural Sub-Sector, Tiruttani Sector, Tiruvallur, Tamil Nadu, 631209",
    "phone": "04118-223163",
    "emergency_phone": "100",
    "type": "Police Station",
    "open_24x7": true,
    "lat": 13.1711,
    "lng": 79.6114,
    "pincode": "631209"
  }
]
