[
  {
    "id": "PS_TPR001",
    "name": "Police Station, Tiruppur North (City)",
    "district": "Tiruppur",
    "city": "Tiruppur",
    "state": "Tamil Nadu",
    "address": "Police Station, Tiruppur North (City), Tiruppur, Tamil Nadu, 641602",
    "phone": "0421-2200101",
    "emergency_phone": "100",
    "type": "Police Station",
    "open_24x7": true,
    "lat": 11.1114,
    "lng": 77.3411,
    "pincode": "641602"
  },
  {
    "id": "PS_TPR002",
    "name": "Police Station, Tiruppur South (City)",
    "district": "Tiruppur",
    "city": "Tiruppur",
    "state": "Tamil Nadu",
    "address": "Police Station, Tiruppur South (City), Tiruppur, Tamil Nadu, 641604",
    "phone": "0421-2240102",
    "emergency_phone": "100",
    "type": "Police Station",
    "open_24x7": true,
    "lat": 11.0984,
    "lng": 77.3512,
    "pincode": "641604"
  },
  {
    "id": "PS_TPR003",
    "name": "Police Station, Central (City)",
    "district": "Tiruppur",
    "city": "Tiruppur",
    "state": "Tamil Nadu",
    "address": "Police Station, Central (City), Tiruppur, Tamil Nadu, 641601",
    "phone": "0421-2201103",
    "emergency_phone": "100",
    "type": "Police Station",
    "open_24x7": true,
    "lat": 11.1064,
    "lng": 77.3458,
    "pincode": "641601"
  },
  {
    "id": "PS_TPR004",
    "name": "Police Station, 15 Velampalayam",
    "district": "Tiruppur",
    "city": "Tiruppur",
    "state": "Tamil Nadu",
    "address": "Police Station, 15 Velampalayam, Tiruppur, Tamil Nadu, 641652",
    "phone": "0421-2255104",
    "emergency_phone": "100",
    "type": "Police Station",
    "open_24x7": true,
    "lat": 11.1345,
    "lng": 77.3245,
    "pincode": "641652"
  },
  {
    "id": "PS_TPR005",
    "name": "Police Station, Anupparpalayam",
    "district": "Tiruppur",
    "city": "Tiruppur",
    "state": "Tamil Nadu",
    "address": "Police Station, Anupparpalayam, Tiruppur, Tamil Nadu, 641652",
    "phone": "0421-2470105",
    "emergency_phone": "100",
    "type": "Police Station",
    "open_24x7": true,
    "lat": 11.1411,
    "lng": 77.3312,
    "pincode": "641652"
  },
  {
    "id": "PS_TPR006",
    "name": "Police Station, Nallur",
    "district": "Tiruppur",
    "city": "Tiruppur",
    "state": "Tamil Nadu",
    "address": "Police Station, Nallur, Tiruppur, Tamil Nadu, 641606",
    "phone": "0421-2212106",
    "emergency_phone": "100",
    "type": "Police Station",
    "open_24x7": true,
    "lat": 11.0812,
    "lng": 77.3842,
    "pincode": "641606"
  },
  {
    "id": "PS_TPR007",
    "name": "Police Station, Veerapandi (City)",
    "district": "Tiruppur",
    "city": "Tiruppur",
    "state": "Tamil Nadu",
    "address": "Police Station, Veerapandi (City), Tiruppur, Tamil Nadu, 641605",
    "phone": "0421-2214107",
    "emergency_phone": "100",
    "type": "Police Station",
    "open_24x7": true,
    "lat": 11.0694,
    "lng": 77.3114,
    "pincode": "641605"
  },
  {
    "id": "PS_TPR008",
    "name": "All Women Police Station, Tiruppur City",
    "district": "Tiruppur",
    "city": "Tiruppur",
    "state": "Tamil Nadu",
    "address": "All Women Police Station, Tiruppur City, Tiruppur, Tamil Nadu, 641601",
    "phone": "0421-2200191",
    "emergency_phone": "100",
    "type": "Police Station",
    "open_24x7": true,
    "lat": 11.1042,
    "lng": 77.3431,
    "pincode": "641601"
  },
  {
    "id": "PS_TPR009",
    "name": "Police Station, Avinashi",
    "district": "Tiruppur",
    "city": "Avinashi",
    "state": "Tamil Nadu",
    "address": "Police Station, Avinashi, Avinashi, Tiruppur, Tamil Nadu, 641654",
    "phone": "04296-273109",
    "emergency_phone": "100",
    "type": "Police Station",
    "open_24x7": true,
    "lat": 11.1958,
    "lng": 77.2691,
    "pincode": "641654"
  },
  {
    "id": "PS_TPR010",
    "name": "Police Station, Palladam",
    "district": "Tiruppur",
    "city": "Palladam",
    "state": "Tamil Nadu",
    "address": "Police Station, Palladam, Palladam, Tiruppur, Tamil Nadu, 641664",
    "phone": "04255-252110",
    "emergency_phone": "100",
    "type": "Police Station",
    "open_24x7": true,
    "lat": 11.0051,
    "lng": 77.2839,
    "pincode": "641664"
  },
  {
    "id": "PS_TPR011",
    "name": "Police Station, Dharapuram",
    "district": "Tiruppur",
    "city": "Dharapuram",
    "state": "Tamil Nadu",
    "address": "Police Station, Dharapuram, Dharapuram, Tiruppur, Tamil Nadu, 638656",
    "phone": "04258-220111",
    "emergency_phone": "100",
    "type": "Police Station",
    "open_24x7": true,
    "lat": 10.7342,
    "lng": 77.5211,
    "pincode": "638656"
  },
  {
    "id": "PS_TPR012",
    "name": "Police Station, Kangayam",
    "district": "Tiruppur",
    "city": "Kangayam",
    "state": "Tamil Nadu",
    "address": "Police Station, Kangayam, Kangayam, Tiruppur, Tamil Nadu, 638701",
    "phone": "04257-220112",
    "emergency_phone": "100",
    "type": "Police Station",
    "open_24x7": true,
    "lat": 11.0058,
    "lng": 77.5642,
    "pincode": "638701"
  },
  {
    "id": "PS_TPR013",
    "name": "Police Station, Udumalpet Town",
    "district": "Tiruppur",
    "city": "Udumalpet",
    "state": "Tamil Nadu",
    "address": "Police Station, Udumalpet Town, Udumalpet, Tiruppur, Tamil Nadu, 642126",
    "phone": "04252-224113",
    "emergency_phone": "100",
    "type": "Police Station",
    "open_24x7": true,
    "lat": 10.5842,
    "lng": 77.2452,
    "pincode": "642126"
  },
  {
    "id": "PS_TPR014",
    "name": "Police Station, Udumalpet Taluk",
    "district": "Tiruppur",
    "city": "Udumalpet",
    "state": "Tamil Nadu",
    "address": "Police Station, Udumalpet Taluk, Udumalpet, Tiruppur, Tamil Nadu, 642126",
    "phone": "04252-225114",
    "emergency_phone": "100",
    "type": "Police Station",
    "open_24x7": true,
    "lat": 10.5811,
    "lng": 77.2411,
    "pincode": "642126"
  },
  {
    "id": "PS_TPR015",
    "name": "Police Station, Madathukulam",
    "district": "Tiruppur",
    "city": "Madathukulam",
    "state": "Tamil Nadu",
    "address": "Police Station, Madathukulam, Madathukulam, Tiruppur, Tamil Nadu, 642113",
    "phone": "04252-250115",
    "emergency_phone": "100",
    "type": "Police Station",
    "open_24x7": true,
    "lat": 10.5412,
    "lng": 77.3694,
    "pincode": "642113"
  },
  {
    "id": "PS_TPR016",
    "name": "Police Station, Vellakoil",
    "district": "Tiruppur",
    "city": "Vellakoil",
    "state": "Tamil Nadu",
    "address": "Police Station, Vellakoil, Vellakoil, Tiruppur, Tamil Nadu, 638111",
    "phone": "04257-251116",
    "emergency_phone": "100",
    "type": "Police Station",
    "open_24x7": true,
    "lat": 11.0452,
    "lng": 77.7121,
    "pincode": "638111"
  },
  {
    "id": "PS_TPR017",
    "name": "Police Station, Mulanur",
    "district": "Tiruppur",
    "city": "Mulanur",
    "state": "Tamil Nadu",
    "address": "Police Station, Mulanur, Mulanur, Tiruppur, Tamil Nadu, 638106",
    "phone": "04258-227117",
    "emergency_phone": "100",
    "type": "Police Station",
    "open_24x7": true,
    "lat": 10.7694,
    "lng": 77.7121,
    "pincode": "638106"
  },
  {
    "id": "PS_TPR018",
    "name": "Police Station, Kundadam",
    "district": "Tiruppur",
    "city": "Kundadam",
    "state": "Tamil Nadu",
    "address": "Police Station, Kundadam, Kundadam, Tiruppur, Tamil Nadu, 638702",
    "phone": "04258-243118",
    "emergency_phone": "100",
    "type": "Police Station",
    "open_24x7": true,
    "lat": 10.8422,
    "lng": 77.5694,
    "pincode": "638702"
  },
  {
    "id": "PS_TPR019",
    "name": "Police Station, Alangiyam Rural",
    "district": "Tiruppur",
    "city": "Dharapuram Rural",
    "state": "Tamil Nadu",
    "address": "Police Station, Alangiyam Rural, Dharapuram Rural, Tiruppur, Tamil Nadu, 638656",
    "phone": "04258-220140",
    "emergency_phone": "100",
    "type": "Police Station",
    "open_24x7": true,
    "lat": 10.7114,
    "lng": 77.5114,
    "pincode": "638656"
  },
  {
    "id": "PS_TPR020",
    "name": "Police Station, Sevur",
    "district": "Tiruppur",
    "city": "Sevur",
    "state": "Tamil Nadu",
    "address": "Police Station, Sevur, Sevur, Tiruppur, Tamil Nadu, 641655",
    "phone": "04296-242120",
    "emergency_phone": "100",
    "type": "Police Station",
    "open_24x7": true,
    "lat": 11.2411,
    "lng": 77.2842,
    "pincode": "641655"
  },
  {
    "id": "PS_TPR021",
    "name": "Police Station, Uthukuli",
    "district": "Tiruppur",
    "city": "Uthukuli",
    "state": "Tamil Nadu",
    "address": "Police Station, Uthukuli, Uthukuli, Tiruppur, Tamil Nadu, 638751",
    "phone": "04294-262121",
    "emergency_phone": "100",
    "type": "Police Station",
    "open_24x7": true,
    "lat": 11.1654,
    "lng": 77.4114,
    "pincode": "638751"
  },
  {
    "id": "PS_TPR022",
    "name": "Police Station, Perumanallur",
    "district": "Tiruppur",
    "city": "Perumanallur",
    "state": "Tamil Nadu",
    "address": "Police Station, Perumanallur, Perumanallur, Tiruppur, Tamil Nadu, 641666",
    "phone": "0421-2351122",
    "emergency_phone": "100",
    "type": "Police Station",
    "open_24x7": true,
    "lat": 11.1854,
    "lng": 77.3411,
    "pincode": "641666"
  },
  {
    "id": "PS_TPR023",
    "name": "Police Station, Mangalam",
    "district": "Tiruppur",
    "city": "Mangalam",
    "state": "Tamil Nadu",
    "address": "Police Station, Mangalam, Mangalam, Tiruppur, Tamil Nadu, 641663",
    "phone": "0421-2345123",
    "emergency_phone": "100",
    "type": "Police Station",
    "open_24x7": true,
    "lat": 11.0912,
    "lng": 77.2411,
    "pincode": "641663"
  },
  {
    "id": "PS_TPR024",
    "name": "Police Station, Kamanaickenpalayam",
    "district": "Tiruppur",
    "city": "Kamanaickenpalayam",
    "state": "Tamil Nadu",
    "address": "Police Station, Kamanaickenpalayam, Kamanaickenpalayam, Tiruppur, Tamil Nadu, 641658",
    "phone": "04255-263124",
    "emergency_phone": "100",
    "type": "Police Station",
    "open_24x7": true,
    "lat": 10.9312,
    "lng": 77.2152,
    "pincode": "641658"
  },
  {
    "id": "PS_TPR025",
    "name": "Police Station, Palladam Rural Sector",
    "district": "Tiruppur",
    "city": "Palladam",
    "state": "Tamil Nadu",
    "address": "Police Station, Palladam Rural Sector, Palladam, Tiruppur, Tamil Nadu, 641664",
    "phone": "04255-252145",
    "emergency_phone": "100",
    "type": "Police Station",
    "open_24x7": true,
    "lat": 11.0114,
    "lng": 77.2912,
    "pincode": "641664"
  },
  {
    "id": "PS_TPR026",
    "name": "Police Station, Gudimangalam",
    "district": "Tiruppur",
    "city": "Gudimangalam",
    "state": "Tamil Nadu",
    "address": "Police Station, Gudimangalam, Gudimangalam, Tiruppur, Tamil Nadu, 642201",
    "phone": "04252-273126",
    "emergency_phone": "100",
    "type": "Police Station",
    "open_24x7": true,
    "lat": 10.6931,
    "lng": 77.3114,
    "pincode": "642201"
  },
  {
    "id": "PS_TPR027",
    "name": "Police Station, Dhali",
    "district": "Tiruppur",
    "city": "Dhali",
    "state": "Tamil Nadu",
    "address": "Police Station, Dhali, Dhali, Tiruppur, Tamil Nadu, 642112",
    "phone": "04252-268127",
    "emergency_phone": "100",
    "type": "Police Station",
    "open_24x7": true,
    "lat": 10.4851,
    "lng": 77.1854,
    "pincode": "642112"
  },
  {
    "id": "PS_TPR028",
    "name": "Police Station, Kaniyur",
    "district": "Tiruppur",
    "city": "Kaniyur",
    "state": "Tamil Nadu",
    "address": "Police Station, Kaniyur, Kaniyur, Tiruppur, Tamil Nadu, 642203",
    "phone": "04252-260128",
    "emergency_phone": "100",
    "type": "Police Station",
    "open_24x7": true,
    "lat": 10.5125,
    "lng": 77.4112,
    "pincode": "642203"
  },
  {
    "id": "PS_TPR029",
    "name": "Police Station, Komaralingam",
    "district": "Tiruppur",
    "city": "Komaralingam",
    "state": "Tamil Nadu",
    "address": "Police Station, Komaralingam, Komaralingam, Tiruppur, Tamil Nadu, 642204",
    "phone": "04252-263129",
    "emergency_phone": "100",
    "type": "Police Station",
    "open_24x7": true,
    "lat": 10.5152,
    "lng": 77.3842,
    "pincode": "642204"
  },
  {
    "id": "PS_TPR030",
    "name": "Police Station, Avinashi Rural",
    "district": "Tiruppur",
    "city": "Avinashi",
    "state": "Tamil Nadu",
    "address": "Police Station, Avinashi Rural, Avinashi, Tiruppur, Tamil Nadu, 641654",
    "phone": "04296-273145",
    "emergency_phone": "100",
    "type": "Police Station",
    "open_24x7": true,
    "lat": 11.1989,
    "lng": 77.2654,
    "pincode": "641654"
  },
  {
    "id": "PS_TPR031",
    "name": "Police Station, Cheyur (Tiruppur Limit)",
    "district": "Tiruppur",
    "city": "Avinashi Rural",
    "state": "Tamil Nadu",
    "address": "Police Station, Cheyur (Tiruppur Limit), Avinashi Rural, Tiruppur, Tamil Nadu, 641655",
    "phone": "04296-248131",
    "emergency_phone": "100",
    "type": "Police Station",
    "open_24x7": true,
    "lat": 11.2152,
    "lng": 77.3119,
    "pincode": "641655"
  },
  {
    "id": "PS_TPR032",
    "name": "Police Station, Tiruppur Rural (Dhalipalayam)",
    "district": "Tiruppur",
    "city": "Tiruppur Sector",
    "state": "Tamil Nadu",
    "address": "Police Station, Tiruppur Rural (Dhalipalayam), Tiruppur Sector, Tiruppur, Tamil Nadu, 641603",
    "phone": "0421-2252132",
    "emergency_phone": "100",
    "type": "Police Station",
    "open_24x7": true,
    "lat": 11.1185,
    "lng": 77.4285,
    "pincode": "641603"
  },
  {
    "id": "PS_TPR033",
    "name": "Police Station, Kunnathur (Tiruppur Limit)",
    "district": "Tiruppur",
    "city": "Uthukuli Sector",
    "state": "Tamil Nadu",
    "address": "Police Station, Kunnathur (Tiruppur Limit), Uthukuli Sector, Tiruppur, Tamil Nadu, 638103",
    "phone": "04294-245133",
    "emergency_phone": "100",
    "type": "Police Station",
    "open_24x7": true,
    "lat": 11.2312,
    "lng": 77.4542,
    "pincode": "638103"
  },
  {
    "id": "PS_TPR034",
    "name": "Police Station, Kangayam Rural",
    "district": "Tiruppur",
    "city": "Kangayam",
    "state": "Tamil Nadu",
    "address": "Police Station, Kangayam Rural, Kangayam, Tiruppur, Tamil Nadu, 638701",
    "phone": "04257-220145",
    "emergency_phone": "100",
    "type": "Police Station",
    "open_24x7": true,
    "lat": 11.0092,
    "lng": 77.5691,
    "pincode": "638701"
  },
  {
    "id": "PS_TPR035",
    "name": "Police Station, Muthur",
    "district": "Tiruppur",
    "city": "Muthur",
    "state": "Tamil Nadu",
    "address": "Police Station, Muthur, Muthur, Tiruppur, Tamil Nadu, 638105",
    "phone": "04257-253135",
    "emergency_phone": "100",
    "type": "Police Station",
    "open_24x7": true,
    "lat": 11.0121,
    "lng": 77.6712,
    "pincode": "638105"
  },
  {
    "id": "PS_TPR036",
    "name": "Police Station, Chennimalai Border Sector",
    "district": "Tiruppur",
    "city": "Kangayam Rural",
    "state": "Tamil Nadu",
    "address": "Police Station, Chennimalai Border Sector, Kangayam Rural, Tiruppur, Tamil Nadu, 638701",
    "phone": "04257-250136",
    "emergency_phone": "100",
    "type": "Police Station",
    "open_24x7": true,
    "lat": 11.0264,
    "lng": 77.6121,
    "pincode": "638701"
  },
  {
    "id": "PS_TPR037",
    "name": "All Women Police Station, Avinashi",
    "district": "Tiruppur",
    "city": "Avinashi",
    "state": "Tamil Nadu",
    "address": "All Women Police Station, Avinashi, Avinashi, Tiruppur, Tamil Nadu, 641654",
    "phone": "04296-273191",
    "emergency_phone": "100",
    "type": "Police Station",
    "open_24x7": true,
    "lat": 11.1912,
    "lng": 77.2661,
    "pincode": "641654"
  },
  {
    "id": "PS_TPR038",
    "name": "All Women Police Station, Palladam",
    "district": "Tiruppur",
    "city": "Palladam",
    "state": "Tamil Nadu",
    "address": "All Women Police Station, Palladam, Palladam, Tiruppur, Tamil Nadu, 641664",
    "phone": "04255-252192",
    "emergency_phone": "100",
    "type": "Police Station",
    "open_24x7": true,
    "lat": 11.0011,
    "lng": 77.2811,
    "pincode": "641664"
  },
  {
    "id": "PS_TPR039",
    "name": "All Women Police Station, Dharapuram",
    "district": "Tiruppur",
    "city": "Dharapuram",
    "state": "Tamil Nadu",
    "address": "All Women Police Station, Dharapuram, Dharapuram, Tiruppur, Tamil Nadu, 638656",
    "phone": "04258-220193",
    "emergency_phone": "100",
    "type": "Police Station",
    "open_24x7": true,
    "lat": 10.7311,
    "lng": 77.5192,
    "pincode": "638656"
  },
  {
    "id": "PS_TPR040",
    "name": "All Women Police Station, Udumalpet",
    "district": "Tiruppur",
    "city": "Udumalpet",
    "state": "Tamil Nadu",
    "address": "All Women Police Station, Udumalpet, Udumalpet, Tiruppur, Tamil Nadu, 642126",
    "phone": "04252-224194",
    "emergency_phone": "100",
    "type": "Police Station",
    "open_24x7": true,
    "lat": 10.5814,
    "lng": 77.2415,
    "pincode": "642126"
  },
  {
    "id": "PS_TPR041",
    "name": "All Women Police Station, Kangayam",
    "district": "Tiruppur",
    "city": "Kangayam",
    "state": "Tamil Nadu",
    "address": "All Women Police Station, Kangayam, Kangayam, Tiruppur, Tamil Nadu, 638701",
    "phone": "04257-220195",
    "emergency_phone": "100",
    "type": "Police Station",
    "open_24x7": true,
    "lat": 11.0028,
    "lng": 77.5612,
    "pincode": "638701"
  },
  {
    "id": "PS_TPR042",
    "name": "Prohibition Enforcement Wing (PEW), Tiruppur Rural",
    "district": "Tiruppur",
    "city": "Tiruppur",
    "state": "Tamil Nadu",
    "address": "Prohibition Enforcement Wing (PEW), Tiruppur Rural, Tiruppur, Tamil Nadu, 641601",
    "phone": "0421-2200551",
    "emergency_phone": "100",
    "type": "Police Station",
    "open_24x7": true,
    "lat": 11.1091,
    "lng": 77.3458,
    "pincode": "641601"
  },
  {
    "id": "PS_TPR043",
    "name": "Prohibition Enforcement Wing (PEW), Dharapuram",
    "district": "Tiruppur",
    "city": "Dharapuram",
    "state": "Tamil Nadu",
    "address": "Prohibition Enforcement Wing (PEW), Dharapuram, Dharapuram, Tiruppur, Tamil Nadu, 638656",
    "phone": "04258-220552",
    "emergency_phone": "100",
    "type": "Police Station",
    "open_24x7": true,
    "lat": 10.7384,
    "lng": 77.5254,
    "pincode": "638656"
  },
  {
    "id": "PS_TPR044",
    "name": "Prohibition Enforcement Wing (PEW), Udumalpet",
    "district": "Tiruppur",
    "city": "Udumalpet",
    "state": "Tamil Nadu",
    "address": "Prohibition Enforcement Wing (PEW), Udumalpet, Udumalpet, Tiruppur, Tamil Nadu, 642126",
    "phone": "04252-224553",
    "emergency_phone": "100",
    "type": "Police Station",
    "open_24x7": true,
    "lat": 10.5865,
    "lng": 77.2491,
    "pincode": "642126"
  },
  {
    "id": "PS_TPR045",
    "name": "District Crime Branch (DCB), Tiruppur Rural",
    "district": "Tiruppur",
    "city": "Tiruppur",
    "state": "Tamil Nadu",
    "address": "District Crime Branch (DCB), Tiruppur Rural, Tiruppur, Tamil Nadu, 641601",
    "phone": "0421-2200276",
    "emergency_phone": "100",
    "type": "Police Station",
    "open_24x7": true,
    "lat": 11.1031,
    "lng": 77.3392,
    "pincode": "641601"
  },
  {
    "id": "PS_TPR046",
    "name": "Police Station, Cyber Crime Wing (Rural)",
    "district": "Tiruppur",
    "city": "Tiruppur",
    "state": "Tamil Nadu",
    "address": "Police Station, Cyber Crime Wing (Rural), Tiruppur, Tamil Nadu, 641601",
    "phone": "0421-2200999",
    "emergency_phone": "100",
    "type": "Police Station",
    "open_24x7": true,
    "lat": 11.1042,
    "lng": 77.3401,
    "pincode": "641601"
  },
  {
    "id": "PS_TPR047",
    "name": "Police Station, Cyber Crime Wing (City)",
    "district": "Tiruppur",
    "city": "Tiruppur",
    "state": "Tamil Nadu",
    "address": "Police Station, Cyber Crime Wing (City), Tiruppur, Tamil Nadu, 641601",
    "phone": "0421-2201999",
    "emergency_phone": "100",
    "type": "Police Station",
    "open_24x7": true,
    "lat": 11.1054,
    "lng": 77.3411,
    "pincode": "641601"
  },
  {
    "id": "PS_TPR048",
    "name": "Police Station, Traffic Police Unit (City)",
    "district": "Tiruppur",
    "city": "Tiruppur",
    "state": "Tamil Nadu",
    "address": "Police Station, Traffic Police Unit (City), Tiruppur, Tamil Nadu, 641601",
    "phone": "0421-2200110",
    "emergency_phone": "100",
    "type": "Police Station",
    "open_24x7": true,
    "lat": 11.1022,
    "lng": 77.3425,
    "pincode": "641601"
  },
  {
    "id": "PS_TPR049",
    "name": "Police Station, Uthukuli Rural Sub-Sector",
    "district": "Tiruppur",
    "city": "Uthukuli Rural",
    "state": "Tamil Nadu",
    "address": "Police Station, Uthukuli Rural Sub-Sector, Uthukuli Rural, Tiruppur, Tamil Nadu, 638751",
    "phone": "04294-262145",
    "emergency_phone": "100",
    "type": "Police Station",
    "open_24x7": true,
    "lat": 11.1691,
    "lng": 77.4158,
    "pincode": "638751"
  },
  {
    "id": "PS_TPR050",
    "name": "Police Station, Dharapuram Rural Sub-Sector",
    "district": "Tiruppur",
    "city": "Dharapuram Sector",
    "state": "Tamil Nadu",
    "address": "Police Station, Dharapuram Rural Sub-Sector, Dharapuram Sector, Tiruppur, Tamil Nadu, 638656",
    "phone": "04258-220163",
    "emergency_phone": "100",
    "type": "Police Station",
    "open_24x7": true,
    "lat": 10.7315,
    "lng": 77.5183,
    "pincode": "638656"
  },
  {
    "id": "PS_TPR051",
    "name": "Police Station, Udumalpet Rural Sub-Sector",
    "district": "Tiruppur",
    "city": "Udumalpet Sector",
    "state": "Tamil Nadu",
    "address": "Police Station, Udumalpet Rural Sub-Sector, Udumalpet Sector, Tiruppur, Tamil Nadu, 642126",
    "phone": "04252-224163",
    "emergency_phone": "100",
    "type": "Police Station",
    "open_24x7": true,
    "lat": 10.5795,
    "lng": 77.2384,
    "pincode": "642126"
  }
]
